"Location Number","Location Name","Location Type","Address 1","Address 2","City","State","Zip Code","Telephone Number","District","Servicing Locations","Physical Close Date","Last Modified Date","Latitude","Longitude"
"1358","PUERTO RICO SRV CTR","Store","ROAD #1 KM 28.6","","CAGUAS","PR","00725","787-653-5891","South Florida","728;717;777;65;618;1372","","08/08/2024","0.0","0.0"
"1118","HATO REY PR","Store","230 Calle Federico Costa","Hato Rey","San Juan","PR","00918","787-764-4900","MM 648 Hato Rey","728;717;777;65;618;1372","","11/28/2024","0.0","0.0"
"1327","BBFB PR COMMERCIAL","Store","230 CALLE FEDERICO ACOSTA","","HATO REY","PR","00918","787-464-4900","MISCELLANEOUS","1359;717;777;65;618;1372","","08/08/2024","0.0","0.0"
"1351","BBYD PR","Store","230 CALLE FEDERICO ACOSTA","","HATO REY","PR","00918","999-999-9999","MISCELLANEOUS","1359;717;777;65;618;1372","","08/08/2024","0.0","0.0"
"1579","BBFB PUERTO RICO","Store","230 CALLE FEDERICO ACOSTA","","HATO REY","PR","00918","999-999-9999","MISCELLANEOUS","78;70;777;65;610;1372","","08/08/2024","0.0","0.0"
"1580","GSP MTH PR RECUR TRN","Store","230 CALLE FEDERICO ACOSTA","","HATO REY","PR","00918","800-433-5778","MISCELLANEOUS","78;70;777;65;610;1372","","08/08/2024","0.0","0.0"
"1583","PC SRV PR RECURR TRN","Store","230 CALLE FEDERICO ACOSTA","","HATO REY","PR","00918","800-433-5778","MISCELLANEOUS","78;70;777;65;610;1372","","08/08/2024","0.0","0.0"
"3133","IHA MARKET PR","Store","230 Calle Federico Costa","","San Juan","PR","00918","888-237-8289","MISCELLANEOUS","728;717;777;65;618;1372","05/02/2024","08/08/2024","0.0","0.0"
"1090","RIO HONDO PR","Store","60 Ave Rio Hondo","Ste 60","Bayamon","PR","00961","787-522-0999","MM 648 Hato Rey","728;717;777;65;618;1372","","11/28/2024","0.0","0.0"
"418","HOLYOKE MALL MA","Store","50 Holyoke St","","Holyoke","MA - Massachusetts","01040","413-533-4443","MM 480 Springfield","726;781;777;65;615;1372","","11/28/2024","42.1693807","-72.6418807"
"1433","LEOMINSTER MA","Store","33 Orchard Hill Park Dr","","Leominster","MA - Massachusetts","01453","978-537-9042","MM 487 Framingham","726;781;777;65;615;1372","","11/28/2024","42.5247748","-71.71240251190324"
"2506","MILLBURY MA","Store","70 Worcester Providence Tpke","Ste 140","Millbury","MA - Massachusetts","01527","508-421-9149","MM 487 Framingham","726;781;777;65;615;1372","","11/28/2024","42.1967955","-71.77767128557389"
"532","FRAMINGHAM MA","Store","1 Worcester Rd","Best Buy Ste 23","Framingham","MA - Massachusetts","01701","508-872-2223","MM 487 Framingham","726;781;777;65;615;1372","","11/28/2024","42.3021457","-71.39859198658824"
"3105","IHA MARKET 5","Store","1 WORCESTER RD","","FRAMINGHAM","MA - Massachusetts","01701","888-237-8289","MISCELLANEOUS","726;781;777;65;615;1372","05/02/2024","08/08/2024","42.3021457","-71.39859198658824"
"2184","YB Framingham MA","Store","100 Worcester Rd","","Framingham","MA - Massachusetts","01702","999-999-9999","MISCELLANEOUS","726;781;777;65;615;1372","","06/25/2024","42.29881405096384","-71.40055368115587"
"820","MARLBOROUGH MA","Store","769 Donald Lynch Blvd","","Marlborough","MA - Massachusetts","01752","508-486-9430","MM 487 Framingham","726;781;777;65;615;1372","","11/28/2024","42.351436699999994","-71.6190492721511"
"1407","MILFORD MA","Store","208 Fortune Blvd","","Milford","MA - Massachusetts","01757","508-634-2291","MISCELLANEOUS","726;781;777;65;615;1372","03/04/2023","08/08/2024","42.1624844","-71.50180889050819"
"1532","BURLINGTON MA","Store","84 Middlesex Tpke","","Burlington","MA - Massachusetts","01803","781-238-8149","MM 488 Danvers","726;781;777;65;615;1372","","11/28/2024","42.4769869","-71.21577332699681"
"818","SAUGUS MA","Store","1201 Broadway","","Saugus","MA - Massachusetts","01906","781-233-3435","MM 488 Danvers","726;781;777;65;615;1372","","11/28/2024","42.461096749999996","-71.02786659178986"
"533","DANVERS MA","Store","230 Independence Way","","Danvers","MA - Massachusetts","01923","978-774-9494","MM 488 Danvers","726;781;777;65;615;1372","","11/28/2024","42.5527016","-70.93844719125094"
"629","BOSTON - SVC","Store","140 Depot St","","Bellingham","MA - Massachusetts","02019","978-374-9877","Boston","726;87;72;65;629","","08/28/2024","42.0974561","-71.4875708829133"
"1240","BOSTON SALE EVENT","Store","140 Depot St","","Bellingham","MA - Massachusetts","02019","508-966-5700","MISCELLANEOUS","726;781;777;65;615;1372","","08/08/2024","42.0974561","-71.4875708829133"
"436","DEDHAM MA","Store","700 Providence Hwy","","Dedham","MA - Massachusetts","02026","781-461-6768","MM 485 Braintree","726;781;777;65;615;1372","","11/28/2024","42.2401598","-71.17613898390923"
"1140","MANSFIELD MA","Store","280 School St","Ste 120","Mansfield","MA - Massachusetts","02048","508-261-2340","MM 494 Warwick","726;781;777;65;615;1372","","11/28/2024","42.0136963","-71.2300252"
"1126","SOUTH BAY MA","Store","14 Allstate Rd","","Dorchester","MA - Massachusetts","02125","617-445-5361","MM 485 Braintree","726;781;777;65;615;1372","","11/28/2024","42.3278702","-71.0608913"
"537","CAMBRIDGE MA","Store","100 Cambridgeside Pl","","Cambridge","MA - Massachusetts","02141","617-577-8866","MISCELLANEOUS","726;781;777;65;615;1372","06/04/2022","08/08/2024","42.3687832","-71.0759859"
"1088","EVERETT MA","Store","162 Santilli Hwy","","Everett","MA - Massachusetts","02149","617-394-5080","MM 488 Danvers","726;781;777;65;615;1372","","11/28/2024","42.40338405","-71.06815684950854"
"530","BRAINTREE MA","Store","550 Grossman Dr","","Braintree","MA - Massachusetts","02184","781-848-1100","MM 485 Braintree","726;781;777;65;615;1372","","11/28/2024","42.21698695","-70.9994578042481"
"2056","NEW YORK FLD SVC #2","Store","401 PARK DR","STE 4","BOSTON","MA - Massachusetts","02215","999-999-9999","MISCELLANEOUS","726;781;777;65;615;1372","","08/08/2024","42.3440365","-71.1024687"
"877","BROCKTON MA","Store","200 Westgate Dr","Westgate Mall","Brockton","MA - Massachusetts","02301","508-587-5294","MISCELLANEOUS","726;781;777;65;615;1372","02/27/2021","08/08/2024","42.0951774","-71.0528887"
"2652","BROCKTON OUTLET","Store","200 Westgate Dr","Westgate Mall","Brockton","MA - Massachusetts","02301","508-897-6720","MM 485 Braintree","726;781;777;65;615;1372","","11/28/2024","42.0951774","-71.0528887"
"385","PLYMOUTH MA","Store","228 Colony Place Rd","","Plymouth","MA - Massachusetts","02360","508-732-3640","MM 485 Braintree","726;781;777;65;615;1372","","11/28/2024","0.0","0.0"
"596","WATERTOWN MA","Store","550 Arsenal St","Ste 2","Watertown","MA - Massachusetts","02472","617-926-0142","MM 487 Framingham","726;781;777;65;615;1372","","11/28/2024","42.3643417","-71.1587609"
"568","CAPE COD MA","Store","793 Iyannough Rd","Ste A","Hyannis","MA - Massachusetts","02601","508-771-5170","MM 485 Braintree","726;781;777;65;615;1372","","11/28/2024","41.6682985","-70.299123"
"343","NORTH DARTMOUTH MA","Store","27 Faunce Corner Rd","","North Dartmouth","MA - Massachusetts","02747","508-984-0002","MM 494 Warwick","726;781;777;65;615;1372","","11/28/2024","41.6431591","-70.9864415"
"441","ATTLEBORO MA","Store","1337 S Washington St","Route 1","North Attleboro","MA - Massachusetts","02760","508-699-5800","MM 494 Warwick","726;781;777;65;615;1372","","11/28/2024","41.935511","-71.35255302436079"
"806","SEEKONK MA","Store","41 Commerce Way","","Seekonk","MA - Massachusetts","02771","508-336-1391","MM 494 Warwick","726;781;777;65;615;1372","","11/28/2024","41.7935651","-71.3221727"
"569","WARWICK RI","Store","24 Universal Blvd","","Warwick","RI - Rhode Island And Providence Plantations","02886","401-826-7007","MM 494 Warwick","726;781;777;65;615;1372","","11/28/2024","0.0","0.0"
"6501","RHODE ISLAND CUSTOM","Store","24 Universal Blvd","","Warwick","RI - Rhode Island And Providence Plantations","02886","999-999-9999","D81","726;781;777;65;615;1372","","08/08/2024","0.0","0.0"
"534","NASHUA NH","Store","220 Daniel Webster Hwy","","Nashua","NH - New Hampshire","03060","603-891-4900","MM 489 Salem","726;781;777;65;615;1372","","11/28/2024","42.7131864","-71.44124482469658"
"419","SALEM NH","Store","290 S Broadway","Unit E","Salem","NH - New Hampshire","03079","603-890-9002","MM 489 Salem","726;781;777;65;615;1372","","11/28/2024","42.7586217","-71.2139914"
"536","MANCHESTER NH","Store","1500 S Willow St","","Manchester","NH - New Hampshire","03103","603-622-0804","MM 489 Salem","726;781;777;65;615;1372","","11/28/2024","42.95538085","-71.43191006139628"
"591","CONCORD NH","Store","78 Damante Dr","","Concord","NH - New Hampshire","03301","603-227-0826","MM 489 Salem","726;781;777;65;615;1372","","11/28/2024","0.0","0.0"
"868","WEST LEBANON NH","Store","274 Plainfield Rd","","West Lebanon","NH - New Hampshire","03784","603-298-7353","MM 478 Williston","726;781;777;65;615;1372","","11/28/2024","43.62600785","-72.32547277042175"
"535","PORTSMOUTH NH","Store","45 Gosling Rd","Ste 15","Newington","NH - New Hampshire","03801","603-431-1269","MM 489 Salem","726;781;777;65;615;1372","","11/28/2024","43.0939957","-70.8010822"
"531","PORTLAND ME","Store","364 Maine Mall Rd","Box 301","South Portland","ME - Maine","04106","207-791-8800","MM 486 Portland","726;781;777;65;615;1372","","11/28/2024","43.6341705","-70.3365511"
"1464","AUGUSTA ME","Store","14 Crossing Way","","Augusta","ME - Maine","04330","207-626-3510","MM 486 Portland","726;781;777;65;615;1372","","11/28/2024","44.308492349999995","-69.80687333797896"
"463","BANGOR ME","Store","45 Bangor Mall Blvd","","Bangor","ME - Maine","04401","207-942-3434","MM 486 Portland","726;781;777;65;615;1372","","11/28/2024","44.83685654999999","-68.74576352030226"
"360","WILLISTON VT","Store","26 Cypress St","","Williston","VT - Vermont","05495","802-872-0992","MM 478 Williston","726;781;777;65;615;1372","","11/28/2024","0.0","0.0"
"484","MANCHESTER CT","Store","120 Slater St","","Manchester","CT - Connecticut","06042","860-648-5870","MM 479 Hartford West","715;781;777;65;615;1372","","11/28/2024","41.8073759","-72.5353558"
"1026","ENFIELD CT","Store","95 Elm St","","Enfield","CT - Connecticut","06082","860-741-2002","MISCELLANEOUS","715;781;777;65;615;1372","02/27/2021","08/08/2024","42.000264099999995","-72.58248635999922"
"1468","WEST SIMSBURY CT","Store","44A Albany Tpke","","West Simsbury","CT - Connecticut","06092","860-651-2359","MM 479 Hartford West","715;781;777;65;615;1372","","11/28/2024","0.0","0.0"
"381","WEST HARTFORD CT","Store","1501 New Britain Ave","","West Hartford","CT - Connecticut","06110","860-521-5400","MM 479 Hartford West","715;781;777;65;615;1372","","11/28/2024","41.723146","-72.75895056441419"
"487","NEWINGTON CT","Store","3377 Berlin Tpke","","Newington","CT - Connecticut","06111","860-666-5100","MM 479 Hartford West","715;781;777;65;615;1372","","11/28/2024","41.65584525","-72.72646754188227"
"549","WATERFORD CT","Store","913 Hartford Tpke","","Waterford","CT - Connecticut","06385","860-701-0300","MM 479 Hartford West","715;781;777;65;615;1372","","11/28/2024","41.3815238","-72.15198987975451"
"760","MERIDEN CT","Store","470 Lewis Ave","Ste 1234","Meriden","CT - Connecticut","06451","203-630-9130","MISCELLANEOUS","715;781;777;65;615;1372","10/30/2021","08/08/2024","41.5509057","-72.80784711784253"
"1488","NORTH HAVEN CT","Store","398 Universal Dr N","","North Haven","CT - Connecticut","06473","203-985-0079","MM 498 New Haven","715;781;777;65;615;1372","","11/28/2024","41.3547419","-72.8738916"
"300","ORANGE CT","Store","53 Boston Post Rd","","Orange","CT - Connecticut","06477","203-795-5730","MISCELLANEOUS","715;781;777;65;615;1372","03/04/2023","08/08/2024","41.2796758","-72.9882825"
"1067","TRUMBULL CT","Store","100 Hawley Ln","","Trumbull","CT - Connecticut","06611","203-381-0783","MM 498 New Haven","715;781;777;65;615;1372","","11/28/2024","41.2324048","-73.1528514"
"331","DANBURY CT","Store","2 International Dr","","Danbury","CT - Connecticut","06810","203-798-9699","MM 220 Hudson Valley","715;781;777;65;615;1372","","11/28/2024","41.4173496","-73.41800786525963"
"886","NORWALK CT","Store","330 Connecticut Ave","Ste 4","Norwalk","CT - Connecticut","06854","203-857-4543","MM 498 New Haven","715;781;777;65;615;1372","","11/28/2024","41.1030238","-73.4383473"
"1217","AMERICAN DREAM NJ","Store","1 American Dream Way","C351","East Rutherford","NJ - New Jersey","07073","201-508-3768","MM 221 Passaic","715;781;777;65;615;1372","","11/28/2024","40.8086083","-74.0720547"
"472","UNION NJ","Store","2391 US Highway 22 W","","Union","NJ - New Jersey","07083","908-810-2150","MMkt 218 Woodbridge","715;781;777;65;615;1372","","11/28/2024","0.0","0.0"
"1506","VAUXHALL NJ","Store","2255 Springfield Ave","","Vauxhall","NJ - New Jersey","07088","908-206-9720","MISCELLANEOUS","715;781;777;65;615;1372","03/02/2024","08/08/2024","0.0","0.0"
"474","SECAUCUS NJ","Store","3 Mill Creek Dr","","Secaucus","NJ - New Jersey","07094","201-325-2277","MM 221 Passaic","715;781;777;65;615;1372","","11/28/2024","40.79184275","-74.05228674740306"
"1535","JERSEY CITY NJ","Store","125 18th St","","Jersey City","NJ - New Jersey","07310","201-792-8399","MMkt 218 Woodbridge","715;781;777;65;615;1372","","11/28/2024","40.73189605","-74.03818054999999"
"468","WEST PATERSON NJ","Store","30 Andrews Dr","","Woodland Park","NJ - New Jersey","07424","973-812-9430","MM 221 Passaic","715;781;777;65;615;1372","","11/28/2024","40.887466399999994","-74.21300026321993"
"1554","CVE SERVICE","Store","5 NORTH CORPORATE DR","","RIVERDALE","NJ - New Jersey","07457","999-999-9999","Central NJ","715;781;777;65;615;1372","","08/08/2024","40.98869345","-74.29932473156725"
"2509","RIVERDALE NJ","Store","48 State Rt 23","","Riverdale","NJ - New Jersey","07457","973-283-3399","MM 221 Passaic","715;781;777;65;615;1372","","11/28/2024","0.0","0.0"
"344","PARAMUS NJ","Store","Route 17 N","Fashion Center Mall","Paramus","NJ - New Jersey","07652","201-652-5794","MM 215 Bergen County","715;781;777;65;615;1372","","11/28/2024","40.9421715","-74.0716352"
"887","BERGEN TWN CENTER NJ","Store","2400 Bergen Town Ctr","","Paramus","NJ - New Jersey","07652","201-556-1321","MM 215 Bergen County","715;781;777;65;615;1372","","11/28/2024","40.914476199999996","-74.05812618356507"
"1895","EATONTOWN NJ","Store","50 State Route 36","","Eatontown","NJ - New Jersey","07724","732-389-7939","MM 690 E Brunswick","715;781;777;65;615;1372","","11/28/2024","40.290411842441685","-74.05192690513844"
"388","MANALAPAN NJ","Store","15 US Highway 9","","Manalapan","NJ - New Jersey","07726","732-761-8445","MM 690 E Brunswick","715;781;777;65;615;1372","","11/28/2024","40.2885488","-74.2973932"
"400","HOLMDEL NJ","Store","2130 State Route 35","At Laurel Ave","Holmdel","NJ - New Jersey","07733","732-671-7123","MM 690 E Brunswick","715;781;777;65;615;1372","","11/28/2024","0.0","0.0"
"457","ROCKAWAY NJ","Store","345 Mount Hope Ave","Ste 1001","Rockaway","NJ - New Jersey","07866","973-659-0911","MM 227 New Brunswick","715;781;777;65;615;1372","","11/28/2024","40.90907729412378","-74.54724663451135"
"473","EAST HANOVER NJ","Store","410 State Route 10","","East Hanover","NJ - New Jersey","07936","973-515-4994","MM 227 New Brunswick","715;781;777;65;615;1372","","11/28/2024","0.0","0.0"
"1098","CHERRY HILL NJ","Store","2130 Route 70 W","","Cherry Hill","NJ - New Jersey","08002","856-910-7932","MM 539 South Jersey","715;84;777;65;615;1372","","11/28/2024","0.0","0.0"
"1177","MANAHAWKIN NJ","Store","215 Stafford Park Blvd","","Manahawkin","NJ - New Jersey","08050","609-978-9425","MM 537 Dept-Atlantic","715;781;777;65;615;1372","","11/28/2024","39.709636","-74.284745"
"2651","MARLTON OUTLET","Store","515 Route 73 S","","Marlton","NJ - New Jersey","08053","856-355-0220","MM 539 South Jersey","715;84;777;65;615;1372","","11/28/2024","0.0","0.0"
"583","MOUNT LAUREL NJ","Store","1420 Nixon Dr","Eastgate Square","Mount Laurel","NJ - New Jersey","08054","856-608-1600","MM 539 South Jersey","715;84;777;65;615;1372","","11/28/2024","39.9404483","-74.9584776"
"579","DEPTFORD NJ","Store","1851 Deptford Center Rd","","Deptford","NJ - New Jersey","08096","856-374-0404","MM 537 Dept-Atlantic","715;84;777;65;615;1372","","11/28/2024","39.827848","-75.09278749667163"
"581","MAYS LANDING NJ","Store","100 Consumer Sq","Hamilton Mall","Mays Landing","NJ - New Jersey","08330","609-485-0500","MM 537 Dept-Atlantic","715;84;777;65;615;1372","","11/28/2024","39.4541379","-74.6301061"
"692","VINELAND NJ","Store","3849 S Delsea Dr","","Vineland","NJ - New Jersey","08360","856-765-1880","MM 537 Dept-Atlantic","715;84;777;65;615;1372","","11/28/2024","39.4317259","-75.03983242050727"
"578","PRINCETON NJ","Store","251 Nassau Park Blvd","Nassau Park Shopping Ctr","Princeton","NJ - New Jersey","08540","609-514-9500","MM 235 Princeton/Oxd","715;781;777;65;615;1372","","11/28/2024","40.3030795","-74.67958439871788"
"475","BRICK NJ","Store","51 Chambersbridge Rd","","Brick","NJ - New Jersey","08723","732-477-4443","MM 690 E Brunswick","715;781;777;65;615;1372","","11/28/2024","40.0608288","-74.1386731"
"544","BRIDGEWATER NJ","Store","300 Commons Way","RM 544","Bridgewater","NJ - New Jersey","08807","908-429-9339","MM 227 New Brunswick","715;781;777;65;615;1372","","11/28/2024","40.5907663","-74.6213848537437"
"598","EAST BRUNSWICK NJ","Store","300 State Route 18","Suite 4","East Brunswick","NJ - New Jersey","08816","732-257-5293","MM 690 E Brunswick","715;781;777;65;615;1372","","11/28/2024","40.455934049999996","-74.40001265140265"
"1688","EDISON FLD SVC","Store","75 CARTER DR","","EDISON","NJ - New Jersey","08817","201-304-4245","MISCELLANEOUS","715;781;777;65;622;1372","","08/08/2024","40.5306572832118","-74.39530344149037"
"456","WOODBRIDGE NJ","Store","675 US Highway 1 S","","Iselin","NJ - New Jersey","08830","732-596-1220","MMkt 218 Woodbridge","715;781;777;65;615;1372","","11/28/2024","0.0","0.0"
"615","NEW YORK SERVICE","Store","300 Ridge Rd","DOCK DOOR #909","Piscataway","NJ - New Jersey","08854","732-376-4500","Central NJ","715;781;777;65","","08/28/2024","40.5576695","-74.51277078703583"
"1236","NEW YORK SALE EVENT","Store","300 Ridge Rd","","Piscataway","NJ - New Jersey","08854","732-376-4659","MISCELLANEOUS","715;781;777;65;615;1372","","08/08/2024","40.5576695","-74.51277078703583"
"2281","GSCC PERTH","Store","300 Ridge Rd","","Piscataway","NJ - New Jersey","08854","999-999-9999","MISCELLANEOUS","715;781;777;65;615;1372","","08/08/2024","40.5576695","-74.51277078703583"
"8216","SatRtl Javits Cnv Ct","Store","655 W 34th St","","New York","NY - New York","10001","999-999-9999","MISCELLANEOUS","715;781;777;65;615;1372","01/31/2023","06/25/2024","40.7570972","-74.0044345"
"1531","UNION SQUARE NY","Store","52 E 14th St","Number 64","New York","NY - New York","10003","212-466-4789","MM 234 Manhattan S","715;781;777;65;615;1372","","11/28/2024","40.7344365","-73.99044747854337"
"482","23RD AND 6TH  NY","Store","60 W 23rd St","","New York","NY - New York","10010","212-366-1373","MM 234 Manhattan S","715;781;777;65;615;1372","","11/28/2024","40.7426455","-73.9926972"
"609","BROADWAY NOHO NY","Store","622 Broadway","","New York","NY - New York","10012","212-673-4067","MISCELLANEOUS","715;781;777;65;615;1372","10/28/2023","08/08/2024","40.702928549999996","-73.946210002563"
"1028","44TH AND 5TH  NY","Store","531 5th Ave","","New York","NY - New York","10017","212-808-0309","MM 232 Manhattan N","715;781;777;65;615;1372","","11/28/2024","40.7547905","-73.9796725"
"1967","MOBILE REPAIR CENTER","Store","360 MADSION AVE","","NEW YORK","NY - New York","10017","212-867-2898","CLOSED BBYM LOCS","715;781;777;65;1372","","08/08/2024","0.0","0.0"
"1448","62ND AND BROADWAY NY","Store","1880 Broadway","","New York","NY - New York","10023","212-246-9734","MISCELLANEOUS","715;781;777;65;615;1372","10/29/2022","08/09/2024","40.7702685","-73.9818237"
"835","86TH AND LEXINGTN NY","Store","1280 Lexington Ave","","New York","NY - New York","10028","917-492-8870","MM 232 Manhattan N","715;781;777;65;615;1372","","11/28/2024","40.7801272","-73.9553231"
"469","STATEN ISLAND NY","Store","2795 Richmond Ave","Ste 39","Staten Island","NY - New York","10314","718-698-7546","MMkt 218 Woodbridge","715;781;777;65;615;1372","","11/28/2024","40.5763716","-74.1663052"
"1172","BRONX TERMINAL NY","Store","610 Exterior St","","Bronx","NY - New York","10451","718-402-2932","MM 216 Westchester","715;781;777;65;615;1372","","11/28/2024","40.82172475","-73.92998023397945"
"1891","FORDHAM RD NY","Store","402 E Fordham Rd","","Bronx","NY - New York","10458","718-329-8788","MM 216 Westchester","715;781;777;65;615;1372","","11/28/2024","40.8608744","-73.8916732"
"1261","BRONX RIVERDALE","Store","171 W 230th St","Ste 103","Bronx","NY - New York","10463","718-530-7720","MM 216 Westchester","715;781;777;65;615;1372","","11/28/2024","40.8772892","-73.9049751"
"822","HARTSDALE NY","Store","299 N Central Ave","","Hartsdale","NY - New York","10530","914-946-0707","MM 216 Westchester","715;781;777;65;615;1372","","11/28/2024","41.0269074","-73.7925293"
"1029","CORTLANDT NY","Store","3105 E Main St","","Mohegan Lake","NY - New York","10547","914-528-3807","MM 220 Hudson Valley","715;781;777;65;615;1372","","11/28/2024","41.310728850000004","-73.8712497981409"
"471","MOUNT VERNON NY","Store","555 E Sandford Blvd","","Mount Vernon","NY - New York","10550","914-664-4425","MM 216 Westchester","715;781;777;65;615;1372","","11/28/2024","40.90207815","-73.81961024646029"
"374","YONKERS NY","Store","2478 Central Park Ave","","Yonkers","NY - New York","10710","914-337-4077","MM 216 Westchester","715;781;777;65;615;1372","","11/28/2024","40.9815399","-73.8277989"
"461","MIDDLETOWN NY","Store","1100 N Galleria Dr","","Middletown","NY - New York","10941","845-692-7553","MM 220 Hudson Valley","715;781;777;65;615;1372","","11/28/2024","41.4553589","-74.3725386"
"1394","MONROE NY","Store","128 Bailey Farm Rd","","Monroe","NY - New York","10950","845-781-4799","MISCELLANEOUS","715;781;777;65;615;1372","10/28/2023","08/08/2024","41.3149575","-74.1504823"
"455","WEST NYACK NY","Store","1240 Palisades Center Dr","","West Nyack","NY - New York","10994","845-358-4070","MM 215 Bergen County","715;781;777;65;615;1372","","11/28/2024","41.0982977","-73.9576664"
"478","LONG ISLAND CITY NY","Store","5001 Northern Blvd","","Long Island City","NY - New York","11101","718-626-7585","MM 226 Queens","715;781;777;65;615;1372","","11/28/2024","40.7537612","-73.91165689314043"
"599","BAY PKWY BROOKLYN NY","Store","8923 Bay Pkwy","","Brooklyn","NY - New York","11214","718-265-6950","MM 226 Queens","715;781;777;65;615;1372","","11/28/2024","40.59357045","-73.99914147519186"
"2518","ATLANTIC CENTER NY","Store","625 Atlantic Ave","Ste A7","Brooklyn","NY - New York","11217","718-230-7480","MM 234 Manhattan S","715;781;777;65;615;1372","","11/28/2024","40.6838452","-73.9754366"
"1520","KINGS PLAZA NY","Store","5102 Avenue U","Ste 0171","Brooklyn","NY - New York","11234","718-677-8839","MISCELLANEOUS","715;781;777;65;615;1372","10/29/2022","08/09/2024","40.6100275","-73.9218086"
"1886","GATEWAY BROOKLYN NY","Store","369 Gateway Dr","","Brooklyn","NY - New York","11239","718-348-2739","MM 226 Queens","715;781;777;65;615;1372","","11/28/2024","40.65161105","-73.87265014027665"
"1115","FLUSHING NY","Store","13107 40th Rd","Ste C300","Flushing","NY - New York","11354","718-888-3629","MM 226 Queens","715;781;777;65;615;1372","","11/28/2024","40.7571222","-73.8355419"
"483","REGO PARK NY","Store","6135 Junction Blvd","","Rego Park","NY - New York","11374","718-393-2690","MM 226 Queens","715;781;777;65;615;1372","","11/28/2024","40.7331921","-73.8632155"
"1467","BALDWIN NY","Store","660 Sunrise Hwy","","Baldwin","NY - New York","11510","516-379-0760","MM 217 Long Island W","715;781;777;65;615;1372","","11/28/2024","40.6558436","-73.612512"
"2687","YB Garden City NY","Store","120-140 Glen Cove Rd","","Carle Place","NY - New York","11514","999-999-9999","MISCELLANEOUS","715;781;777;65;615;1372","","06/25/2024","40.744811600000006","-73.61693665"
"950","VALLEY STREAM NY","Store","6 West Cir","","Valley Stream","NY - New York","11581","516-561-7213","MM 217 Long Island W","715;781;777;65;615;1372","","11/28/2024","0.0","0.0"
"454","WESTBURY NY","Store","1100 Old Country Rd","","Westbury","NY - New York","11590","516-357-9025","MM 217 Long Island W","715;781;777;65;615;1372","","11/28/2024","40.7442584","-73.602036"
"3126","IHA MARKET 26","Store","1100 OLD COUNTRY RD","","WESTBURY","NY - New York","11590","888-237-8289","MISCELLANEOUS","715;781;777;65;615;1372","05/02/2024","08/08/2024","40.7442584","-73.602036"
"3127","IHA MARKET 27","Store","1050 OLD COUNTRY RD","","WESTBURY","NY - New York","11590","800-548-0828","MISCELLANEOUS","715;781;777;65;615;1372","05/02/2024","08/08/2024","40.7425247","-73.6056242"
"442","BAY SHORE NY","Store","1851 Sunrise Hwy","","Bay Shore","NY - New York","11706","631-969-8740","MM 229 Long Island E","715;781;777;65;615;1372","","11/28/2024","40.7410288","-73.2370598"
"458","S SETAUKET NY","Store","261 Pond Path","","South Setauket","NY - New York","11720","631-737-1632","MM 229 Long Island E","715;781;777;65;615;1372","","11/28/2024","40.884179700000004","-73.09921394538858"
"200","COMMACK NY","Store","3124 Jericho Tpke","","East Northport","NY - New York","11731","631-462-1256","MISCELLANEOUS","715;781;777;65;615;1372","03/02/2024","08/09/2024","40.8383616","-73.3184106"
"2697","COMMACK OUTLET","Store","3124 Jericho Tpke","","East Northport","NY - New York","11731","999-999-9999","MISCELLANEOUS","715;781;777;65;615;1372","10/02/2024","09/29/2024","40.8383616","-73.3184106"
"345","HUNTINGTN STATION NY","Store","148 Walt Whitman Rd","","Huntington Station","NY - New York","11746","631-427-5161","MM 217 Long Island W","715;781;777;65;615;1372","","11/28/2024","40.82556195","-73.41139746445472"
"467","LEVITTOWN NY","Store","3601 Hempstead Tpke","Ste 20 Nassau Mall","Levittown","NY - New York","11756","516-796-8095","MM 217 Long Island W","715;781;777;65;615;1372","","11/28/2024","40.72618775","-73.50302886567798"
"824","PATCHOGUE NY","Store","499 N Service Rd","Ste 39","Patchogue","NY - New York","11772","631-475-6269","MM 229 Long Island E","715;781;777;65;615;1372","","11/28/2024","40.777546","-73.036444"
"2484","3PP RECOMM GP-NY","Store","2110 Fifth Ave","","Ronkonkoma","NY - New York","11779","999-999-9999","MISCELLANEOUS","715;781;777;65;615","","08/08/2024","0.0","0.0"
"809","RIVERHEAD NY","Store","1440 Old Country Rd","Ste 100","Riverhead","NY - New York","11901","631-369-4150","MM 229 Long Island E","715;781;777;65;615;1372","","11/28/2024","40.9273661","-72.6919394"
"2614","WATERVLIET AUTO BAY","Store","861 1st St","","Watervliet","NY - New York","12189","518-244-4411","MM 682 Albany","726;781;777;65;615;1372","","06/25/2024","42.709573576300315","-73.71646849599911"
"428","ALBANY NY","Store","1 Crossgates Mall Rd","","Albany","NY - New York","12203","518-452-6881","MM 682 Albany","726;781;777;65;615;1372","","11/28/2024","42.6879215","-73.8480735"
"460","POUGHKEEPSIE NY","Store","2001 South Rd","","Poughkeepsie","NY - New York","12601","845-298-8077","MM 220 Hudson Valley","715;781;777;65;615;1372","","11/28/2024","41.625167000000005","-73.92159176718592"
"541","SARATOGA SPRINGS NY","Store","3062 Route 50","","Saratoga Springs","NY - New York","12866","518-583-1785","MM 682 Albany","726;781;777;65;615;1372","","11/28/2024","0.0","0.0"
"1091","PLATTSBURGH NY","Store","60 Smithfield Blvd","Ste 109","Plattsburgh","NY - New York","12901","518-561-2359","MISCELLANEOUS","726;781;777;65;615;1372","10/30/2021","08/08/2024","44.7002698","-73.4902732"
"1127","DEWITT NY","Store","3401 Erie Blvd E","","Dewitt","NY - New York","13214","315-449-1784","MM 545 DeWitt","723;781;777;65;623;1372","","11/28/2024","43.0477215","-76.0657231"
"545","NEW HARTFORD NY","Store","4725 Commercial Dr","","New Hartford","NY - New York","13413","315-736-8710","MM 545 DeWitt","726;781;777;65;615;1372","","11/28/2024","43.09286295","-75.30881449271733"
"1089","WATERTOWN NY","Store","21085 Salmon Run Mall Loop W","","Watertown","NY - New York","13601","315-782-0867","MM 545 DeWitt","723;781;777;65;623;1372","","11/28/2024","43.9787957","-75.9515675"
"2496","NICHOLS SEC MK WH","Store","55 BERRY RD","","NICHOLS","NY - New York","13812","999-999-9999","MISCELLANEOUS","715;781;777;65;615;1372","","08/08/2024","42.0609207","-76.320826990151"
"1380","VESTAL NY","Store","3209 Vestal Pkwy E","","Vestal","NY - New York","13850","607-777-1489","MM 547 Vestal","715;781;777;65;615;1372","","11/28/2024","42.09695675","-75.99733982848085"
"1131","HAMBURG NY","Store","3701 McKinley Pkwy","Ste 114","Buffalo","NY - New York","14219","716-824-2670","MM 531 Amherst","723;781;777;65;623;1372","","11/28/2024","42.784430650000004","-78.80767129285158"
"1152","WALDEN GALLERIA NY","Store","1 Galleria Dr","J107","Cheektowaga","NY - New York","14225","716-681-5406","MM 531 Amherst","723;781;777;65;623;1372","","11/28/2024","42.9143038","-78.7625229"
"459","AMHERST NY","Store","1585 Niagara Falls Blvd","","Amherst","NY - New York","14228","716-837-9080","MM 531 Amherst","723;781;777;65;623;1372","","11/28/2024","42.99807075","-78.81553861975954"
"1541","VICTOR NY","Store","7550 Commons Blvd","","Victor","NY - New York","14564","585-421-4099","MM 683 Henrietta","723;781;777;65;623;1372","","11/28/2024","43.0339249","-77.4489098047845"
"433","HENRIETTA NY","Store","2345 Marketplace Dr","","Rochester","NY - New York","14623","585-292-0250","MM 683 Henrietta","723;781;777;65;623;1372","","11/28/2024","43.07914925","-77.63288456551608"
"1400","GREECE NY","Store","2833 W Ridge Rd","Ste 18","Rochester","NY - New York","14626","585-225-4690","MM 683 Henrietta","723;781;777;65;623;1372","","11/28/2024","43.2086132","-77.7057377"
"384","ITHACA NY","Store","40 Catherwood Rd","","Ithaca","NY - New York","14850","607-257-6824","MM 547 Vestal","723;781;777;65;623;1372","","11/28/2024","42.4837579","-76.491146"
"1036","BIG FLATS NY","Store","950 County Road 64","Ste 300","Elmira","NY - New York","14903","607-739-9471","MM 547 Vestal","715;781;777;65;615;1372","","11/28/2024","42.1533356","-76.8714535"
"586","SOUTH HILLS PA","Store","5000 Alicia Dr","","Bethel Park","PA - Pennsylvania","15102","412-835-1255","MM 701 Monroeville","723;87;777;65;623;1372","","11/28/2024","40.34647805","-80.04466894543876"
"432","MONROEVILLE PA","Store","200 Mall Circle Dr","","Monroeville","PA - Pennsylvania","15146","412-856-7344","MM 701 Monroeville","723;87;777;65;623;1372","","11/28/2024","40.4311385","-79.7999225517732"
"588","CENTURY III PA","Store","473 Clairton Blvd","","Pittsburgh","PA - Pennsylvania","15236","412-650-6240","MM 701 Monroeville","723;87;777;65;623;1372","","11/28/2024","40.3348524","-79.9446864"
"585","NORTH HILLS PA","Store","4801 McKnight Rd","Ste 30","Pittsburgh","PA - Pennsylvania","15237","412-635-6110","MM 672 N Fayette","723;87;777;65;623;1372","","11/28/2024","40.5226822","-80.00653302829332"
"584","NORTH FAYETTE PA","Store","430 Home Dr","","Pittsburgh","PA - Pennsylvania","15275","412-490-2080","MM 672 N Fayette","723;87;777;65;623;1372","","11/28/2024","0.0","0.0"
"595","GREENSBURG PA","Store","125 Donohoe Rd","","Greensburg","PA - Pennsylvania","15601","724-838-8901","MM 701 Monroeville","723;87;777;65;623;1372","","11/28/2024","40.3050227","-79.5095331528367"
"1267","JOHNSTOWN PA","Store","430 Town Centre Dr","","Johnstown","PA - Pennsylvania","15904","814-262-4699","MM 680 St College","723;87;777;65;623;1372","","11/28/2024","40.2777505","-78.8428998"
"825","CRANBERRY PA","Store","1000 Cranberry Square Dr","","Cranberry Township","PA - Pennsylvania","16066","724-778-8300","MM 672 N Fayette","723;87;777;65;623;1372","","11/28/2024","40.69043895","-80.10578914854003"
"3124","IHA MARKET 24","Store","1000 CRANBERRY SQUARE DR","","CRANBERRY TOWNSHIP","PA - Pennsylvania","16066","888-237-8289","MISCELLANEOUS","723;87;777;65;610;1372","05/02/2024","08/08/2024","40.69043895","-80.10578914854003"
"597","ERIE PA","Store","6650 Peach St","","Erie","PA - Pennsylvania","16509","814-860-8487","MM 658 Youngstown","723;87;777;65;623;1372","","11/28/2024","42.0571095","-80.09228"
"1015","ALTOONA PA","Store","1721 Osgood Dr","","Altoona","PA - Pennsylvania","16602","814-949-6750","MM 680 St College","723;781;777;65;623;1372","","11/28/2024","40.491814899999994","-78.38341878057125"
"369","STATE COLLEGE PA","Store","1650 N Atherton St","","State College","PA - Pennsylvania","16803","814-237-5610","MM 680 St College","723;781;777;65;623;1372","","11/28/2024","40.8067667","-77.89481881238835"
"1478","MECHANICSBURG PA","Store","6416 Carlisle Pike","Ste 3400","Mechanicsburg","PA - Pennsylvania","17050","717-795-1741","MM 696 York","722;781;777;65;622;1372","","11/28/2024","40.24719735","-77.00888627201564"
"2499","3PP Recomm Group PA","Store","270 Old Silver Springs Rd","","Mechanicsburg","PA - Pennsylvania","17050","999-999-9999","MISCELLANEOUS","722;781;777;65;622;1372","","06/25/2024","40.221688110987735","-77.00574087347584"
"547","HARRISBURG EAST PA","Store","5000 Jonestown Rd","","Harrisburg","PA - Pennsylvania","17112","717-651-0980","MM 696 York","722;781;777;65;622;1372","","11/28/2024","40.3078369","-76.805527128638"
"1087","YORK PA","Store","2865 Concord Rd","","York","PA - Pennsylvania","17402","717-840-4530","MM 696 York","722;84;777;65;622;1372","","11/28/2024","39.98483565","-76.6710985685834"
"1197","LANCASTER PA","Store","1700 Fruitville Pike","Ste G","Lancaster","PA - Pennsylvania","17601","717-391-7459","MM 696 York","722;84;777;65;622;1372","","11/28/2024","40.06852485","-76.32116090368821"
"1039","MUNCY PA","Store","115 Lycoming Mall Cir","","Muncy","PA - Pennsylvania","17756","570-546-7115","MISCELLANEOUS","715;781;777;65;615;1372","03/05/2022","08/09/2024","41.245079167285795","-76.8316931322386"
"1794","SELINSGROVE PA","Store","110 Marketplace Blvd","","Selinsgrove","PA - Pennsylvania","17870","570-372-2639","MM 525 Scranton/Wlks","722;781;777;65;622;1372","","11/28/2024","40.840864249999996","-76.8314782"
"1403","BETHLEHEM PA","Store","4413 Birkland Pl","","Easton","PA - Pennsylvania","18045","610-250-2689","MM 540 Lehigh Vlly","715;781;777;65;615;1372","","11/28/2024","40.6575087","-75.285724"
"587","WHITEHALL PA","Store","1504 Macarthur Rd","","Whitehall","PA - Pennsylvania","18052","610-432-6956","MM 540 Lehigh Vlly","715;781;777;65;615;1372","","11/28/2024","40.6284332","-75.48562713808323"
"1442","STROUDSBURG PA","Store","300 Shoppes Stroud","","Stroudsburg","PA - Pennsylvania","18360","570-476-1421","MM 540 Lehigh Vlly","715;781;777;65;615;1372","","11/28/2024","0.0","0.0"
"341","SCRANTON PA","Store","959 Viewmont Dr","","Dickson City","PA - Pennsylvania","18519","570-346-8977","MM 525 Scranton/Wlks","715;781;777;65;615;1372","","11/28/2024","41.4553243","-75.6510870744392"
"342","WILKES BARRE PA","Store","449 Arena Hub Plz","","Wilkes Barre","PA - Pennsylvania","18702","570-819-0719","MM 525 Scranton/Wlks","715;781;777;65;615;1372","","11/28/2024","41.24034425","-75.83993324338724"
"1395","QUAKERTOWN PA","Store","646 N West End Blvd","","Quakertown","PA - Pennsylvania","18951","215-804-0039","MM 540 Lehigh Vlly","715;84;777;65;615;1372","","11/28/2024","40.4607904","-75.3716752"
"577","OXFORD VALLEY PA","Store","310 Commerce Blvd","The Court at Oxford Valley","Fairless Hills","PA - Pennsylvania","19030","215-949-3006","MM 235 Princeton/Oxd","715;84;777;65;615;1372","","11/28/2024","40.1885034","-74.8656335"
"582","SPRINGFIELD PA","Store","642 Baltimore Pike","","Springfield","PA - Pennsylvania","19064","610-604-7474","MM 532 Delaware N","715;84;777;65;615;1372","","11/28/2024","39.9202527","-75.32783263717913"
"576","WILLOW GROVE PA","Store","1130 Easton Rd","","Willow Grove","PA - Pennsylvania","19090","215-784-7020","MM 235 Princeton/Oxd","715;84;777;65;615;1372","","11/28/2024","40.157144942031046","-75.12193384751397"
"3125","IHA MARKET 25","Store","1130 EASTON RD","STE B","WILLOW GROVE","PA - Pennsylvania","19090","800-548-0828","MISCELLANEOUS","715;84;777;65;615;1372","05/02/2024","08/08/2024","40.157144942031046","-75.12193384751397"
"589","NE PHILADELPHIA PA","Store","9733 Roosevelt Blvd","","Philadelphia","PA - Pennsylvania","19114","215-676-7206","MM 235 Princeton/Oxd","715;84;777;65;615;1372","","11/28/2024","40.0949924","-75.0177375"
"898","S PHILADELPHIA PA","Store","2300 S Christopher Columbus Bl","","Philadelphia","PA - Pennsylvania","19148","215-336-2212","MM 539 South Jersey","715;84;777;65;615;1372","","11/28/2024","0.0","0.0"
"1764","DOWNINGTOWN PA","Store","10 Quarry Rd","Spc G1","Downingtown","PA - Pennsylvania","19335","610-873-2312","MM 532 Delaware N","715;84;777;65;615;1372","","11/28/2024","40.0171008","-75.6764845"
"197","KING OF PRUSSIA PA","Store","310 Goddard Blvd","","King Of Prussia","PA - Pennsylvania","19406","610-265-7718","MISCELLANEOUS","715;84;777;65;615;1372","10/30/2021","08/08/2024","40.09141407740314","-75.39796185066245"
"2178","YB King o Prussia PA","Store","340 W Dekalb Pike","","King of Prussia","PA - Pennsylvania","19406","999-999-9999","MISCELLANEOUS","715;84;777;65;615;1372","","06/25/2024","40.091865","-75.372175"
"1193","COLLEGEVILLE PA","Store","400 Front St","Ste 4","Collegeville","PA - Pennsylvania","19426","610-409-7879","MM 530 Philly West","715;84;777;65;615;1372","","11/28/2024","40.16377855","-75.48030157345033"
"525","MONTGOMERYVILLE  PA","Store","801 Bethlehem Pike","","North Wales","PA - Pennsylvania","19454","215-855-3528","MM 530 Philly West","715;84;777;65;615;1372","","11/28/2024","40.2375947","-75.23847477040775"
"448","PLYMOUTH MEETING PA","Store","2010 Chemical Rd","","Plymouth Meeting","PA - Pennsylvania","19462","610-567-2835","MM 530 Philly West","715;84;777;65;615;1372","","11/28/2024","40.102833849999996","-75.29530266852638"
"580","READING PA","Store","1701 Crossing Dr","Berkshire Crossing","Wyomissing","PA - Pennsylvania","19610","610-375-3340","MM 530 Philly West","715;781;777;65;615;1372","","11/28/2024","40.348118299999996","-75.96623119692958"
"1480","CHRISTIANA DE","Store","2700 Fashion Center Blvd","","Newark","DE - Delaware","19702","302-369-7015","MM 532 Delaware N","715;84;777;65;615;1372","","11/28/2024","39.6725192","-75.6470845"
"465","CONCORD PIKE DE","Store","4807 Concord Pike","","Wilmington","DE - Delaware","19803","302-477-0305","MM 532 Delaware N","715;84;777;65;615;1372","","11/28/2024","39.8264569","-75.5426436"
"842","DOVER DE","Store","1165 N Dupont Hwy","","Dover","DE - Delaware","19901","302-677-0200","MM 532 Delaware N","715;84;777;65;615;1372","","11/28/2024","39.1891955","-75.5379655"
"1092","COLUMBIA HEIGHTS DC","Store","3100 14th St NW","STE 203","Washington","DC - District Of Columbia","20010","202-387-6150","MM 575 Bail Cross","722;84;777;65;622;1372","","11/28/2024","38.9298584","-77.03332391453975"
"356","MANASSAS VA","Store","7665 Sudley Rd","","Manassas","VA - Virginia","20109","703-257-7474","MISCELLANEOUS","722;84;777;65;622;1372","03/05/2022","08/09/2024","38.7907714","-77.51329277574823"
"2655","MANASSAS OUTLET","Store","7665 Sudley Rd","","Manassas","VA - Virginia","20109","703-396-6922","MM 574 Fairlakes","722;84;777;65;622;1372","","11/28/2024","38.7907714","-77.51329277574823"
"1449","GAINESVILLE VA","Store","13093 Gateway Center Dr","","Gainesville","VA - Virginia","20155","571-248-4944","MM 574 Fairlakes","722;84;777;65;622;1372","","11/28/2024","38.7939191","-77.60362501270481"
"146","STERLING VA","Store","45575 Dulles Eastern Plz","Ste 188","Sterling","VA - Virginia","20166","703-430-2150","MM 574 Fairlakes","722;84;777;65;622;1372","","11/28/2024","39.023321949999996","-77.422186999941"
"1022","LEESBURG VA","Store","609 Potomac Station Dr","","Leesburg","VA - Virginia","20176","703-669-4100","MM 574 Fairlakes","722;84;777;65;622;1372","","11/28/2024","39.0977473","-77.5282246"
"446","WALDORF MD","Store","11725 Berry Rd","","Waldorf","MD - Maryland","20603","301-632-5740","MM 576 Potomac Mil","722;84;777;65;622;1372","","11/28/2024","38.62677185","-76.91236476702139"
"1003","LEXINGTON PARK MD","Store","45235 Worth Ave","","California","MD - Maryland","20619","301-737-6252","MM 576 Potomac Mil","722;84;777;65;622;1372","","11/28/2024","38.2968319","-76.5102042"
"1776","WOODMORE TWNE CTR MD","Store","2300 Petrie Ln","","Lanham","MD - Maryland","20706","301-341-6739","MM 571 Annapolis","722;84;777;65;622;1372","","11/28/2024","38.92194265","-76.84606874673423"
"265","LAUREL MD","Store","14160 Baltimore Ave","Laurel Lakes Centre","Laurel","MD - Maryland","20707","301-497-1890","MM 572 Columbia","722;84;777;65;622;1372","","11/28/2024","39.084582749999996","-76.86469786783601"
"3123","IHA MARKET 23","Store","14160 BALTIMORE AVE","","LAUREL","MD - Maryland","20707","888-237-8289","MISCELLANEOUS","722;84;777;65;615;1372","05/02/2024","08/08/2024","39.084582749999996","-76.86469786783601"
"486","BOWIE MD","Store","15800 Collington Rd","","Bowie","MD - Maryland","20716","301-464-3080","MISCELLANEOUS","722;84;777;65;622;1372","09/21/2023","08/09/2024","38.945191550000004","-76.73073535868087"
"2549","BOWIE OUTLET","Store","15800 Collington Rd","","Bowie","MD - Maryland","20716","301-464-4961","MM 571 Annapolis","722;84;777;65;622;1372","","11/28/2024","38.945191550000004","-76.73073535868087"
"2508","COLLEGE PARK MD","Store","4710 Cherry Hill Rd","","College Park","MD - Maryland","20740","301-982-2639","MISCELLANEOUS","722;84;777;65;622;1372","07/08/2023","08/08/2024","39.0170528","-76.92939596270764"
"293","ROCKVILLE MD","Store","1200 Rockville Pike","","Rockville","MD - Maryland","20852","301-984-1479","MM 577 Rockville","722;84;777;65;622;1372","","11/28/2024","39.069981150000004","-77.13016925852706"
"2176","YB North Bethesda MD","Store","11610 Rockville Pike","","Rockville","MD - Maryland","20852","999-999-9999","MISCELLANEOUS","722;84;777;65;622;1372","","06/25/2024","39.070753327663226","-77.1319706282864"
"819","GERMANTOWN MD","Store","20914 Frederick Rd","","Germantown","MD - Maryland","20876","240-686-1221","MM 577 Rockville","722;84;777;65;622;1372","","11/28/2024","39.20008695","-77.25165966737285"
"288","GAITHERSBURG MD","Store","15750 Shady Grove Rd","","Gaithersburg","MD - Maryland","20877","301-990-8839","MM 577 Rockville","722;84;777;65;622;1372","10/26/2024","11/01/2024","39.114413978723405","-77.1861089574468"
"1129","WHEATON MD","Store","10901 Georgia Ave","","Wheaton","MD - Maryland","20902","301-942-1877","MM 577 Rockville","722;84;777;65;622;1372","","11/28/2024","39.0346048","-77.04862753322615"
"296","BEL AIR MD","Store","602 Boulton St","Harford Mall Annex","Bel Air","MD - Maryland","21014","410-893-6101","MM 570 Towson","722;84;777;65;622;1372","","11/28/2024","39.5286678","-76.35951735782652"
"290","GLEN BURNIE MD","Store","6722 Ritchie Hwy","","Glen Burnie","MD - Maryland","21061","410-787-3139","MM 572 Columbia","722;84;777;65;622;1372","","11/28/2024","39.19078465","-76.6154354881579"
"263","COLUMBIA MD","Store","8251 Gateway Overlook Dr","","Elkridge","MD - Maryland","21075","410-872-9448","MM 572 Columbia","722;84;777;65;622;1372","","11/28/2024","39.184602749999996","-76.79363326937248"
"1692","BALTIMRE FLD SVC","Store","6680 BUSINESS PKWY","","ELKRIDGE","MD - Maryland","21075","781-953-1395","MISCELLANEOUS","726;781;777;65;623;1372","","08/08/2024","39.18543095","-76.77579154656476"
"1053","ARUNDEL MILLS MD","Store","7000 Arundel Mills Cir","Ste F1","Hanover","MD - Maryland","21076","410-540-8340","MISCELLANEOUS","722;84;777;65;622;1372","10/30/2021","08/08/2024","39.1596579","-76.723355"
"149","TOWSON MD","Store","1717 York Rd","","Timonium","MD - Maryland","21093","410-561-2260","MM 570 Towson","722;84;777;65;622;1372","","11/28/2024","39.42733669565217","-76.62005102173913"
"2638","LUTHERVILLE OUTLET","Store","160 W Ridgely Rd","","Lutherville Timonium","MD - Maryland","21093","410-427-2829","MISCELLANEOUS","722;84;777;65;622;1372","11/04/2023","08/08/2024","39.4289564","-76.6264027"
"1436","OWINGS MILLS MD","Store","10400 Owings Mills Blvd","","Owings Mills","MD - Maryland","21117","443-394-0620","MM 570 Towson","722;84;777;65;622;1372","","11/28/2024","39.419756050000004","-76.77920558387457"
"622","BALTIMORE - SVC","Store","7550 Perryman Ct","DOCK DOOR 902","Curtis Bay","MD - Maryland","21226","410-579-8113","Baltimore","722;77;72;65;622","","08/28/2024","0.0","0.0"
"1238","BALTIMORE SALE EVENT","Store","7550 Perryman Ct","","Curtis Bay","MD - Maryland","21226","410-579-8869","MISCELLANEOUS","722;84;777;65;615;1372","","08/08/2024","0.0","0.0"
"159","WHITE MARSH MD","Store","5200 Campbell Blvd","Nottingham Square","Nottingham","MD - Maryland","21236","410-931-3107","MM 570 Towson","722;84;777;65;622;1372","","11/28/2024","39.372742099999996","-76.45417853181384"
"163","ANNAPOLIS MD","Store","2643 Housley Rd","Gateway Village Shopping Ctr","Annapolis","MD - Maryland","21401","410-571-9011","MM 571 Annapolis","722;84;777;65;622;1372","","11/28/2024","38.9860699","-76.5552293"
"427","FREDERICK MD","Store","7300 Guilford Dr","","Frederick","MD - Maryland","21704","301-662-6130","MM 578 Frederick","722;84;777;65;622;1372","","11/28/2024","39.397249599999995","-77.41603912884382"
"1445","HAGERSTOWN MD","Store","18053 Garland Groh Blvd","","Hagerstown","MD - Maryland","21740","240-420-8523","MM 578 Frederick","722;84;777;65;622;1372","","11/28/2024","39.660674549999996","-77.74381749693552"
"772","SALISBURY MD","Store","109 E North Pointe Dr","","Salisbury","MD - Maryland","21804","410-334-6771","MM 571 Annapolis","722;84;777;65;622;1372","","11/28/2024","38.417361","-75.56409120110416"
"273","FAIRLAKES VA","Store","13058 Fairlakes Shopping Ctr","","Fairfax","VA - Virginia","22033","703-631-3332","MM 574 Fairlakes","722;84;777;65;622;1372","","11/28/2024","0.0","0.0"
"283","BAILEYS CROSSROAD VA","Store","5799 Leesburg Pike","RM D","Falls Church","VA - Virginia","22041","703-671-0184","MM 575 Bail Cross","722;84;777;65;622;1372","","11/28/2024","38.8504772","-77.13112694945207"
"269","SPRINGFIELD VA","Store","6555 Frontier Dr","","Springfield","VA - Virginia","22150","703-922-4980","MM 575 Bail Cross","722;84;777;65;622;1372","","11/28/2024","38.774429","-77.1696077"
"397","TYSONS CORNER VA","Store","8449 Leesburg Pike","","Vienna","VA - Virginia","22182","703-748-9814","MM 574 Fairlakes","722;84;777;65;622;1372","","11/28/2024","0.0","0.0"
"2177","YB Tysons VA","Store","1929 Old Gallows Rd","","Vienna","VA - Virginia","22182","999-999-9999","MISCELLANEOUS","722;84;777;65;622;1372","","06/25/2024","38.9116429","-77.2212105"
"287","POTOMAC MILLS VA","Store","2730 Prince William Pkwy","","Woodbridge","VA - Virginia","22192","703-490-7499","MM 576 Potomac Mil","722;84;777;65;622;1372","","11/28/2024","38.65217645","-77.29526011534948"
"276","PENTAGON CITY VA","Store","1201 S Hayes St","Ste B","Arlington","VA - Virginia","22202","703-414-7090","MM 575 Bail Cross","722;84;777;65;622;1372","","11/28/2024","38.861360950000005","-77.05825458926232"
"493","POTOMAC YARD VA","Store","3401 Richmond Hwy","","Alexandria","VA - Virginia","22305","703-519-0940","MM 575 Bail Cross","722;84;777;65;622;1372","","11/28/2024","38.8360311","-77.0497203"
"166","FREDERICKSBURG VA","Store","1541 Carl D Silver Pkwy","Central Park Shopping Center","Fredericksburg","VA - Virginia","22401","540-785-2200","MM 576 Potomac Mil","722;84;777;65;622;1372","","11/28/2024","38.3029527","-77.504903"
"3122","IHA MARKET 22","Store","1541 CARL D SILVER PKWY","","FREDERICKSBURG","VA - Virginia","22401","800-548-0828","MISCELLANEOUS","722;84;777;65;615;1372","05/02/2024","08/08/2024","38.3029527","-77.504903"
"1476","STAFFORD VA","Store","1455 Stafford Market Pl","","Stafford","VA - Virginia","22556","540-659-5098","MISCELLANEOUS","722;84;777;65;622;1372","03/02/2024","08/09/2024","38.4714873","-77.4120512"
"1086","WINCHESTER VA","Store","601 East Jubal Early Dr","","Winchester","VA - Virginia","22601","540-723-6179","MM 578 Frederick","722;84;777;65;622;1372","","11/28/2024","39.16565415424828","-78.16462101286515"
"1534","HARRISONBURG VA","Store","259 Burgess Rd","","Harrisonburg","VA - Virginia","22801","540-574-9549","MM 581 Charlottes","722;84;777;65;622;1372","","11/28/2024","38.4329387","-78.8529258"
"860","CHARLOTTESVILLE VA","Store","1615 Emmet St N","","Charlottesville","VA - Virginia","22901","434-977-1578","MM 581 Charlottes","722;84;777;65;622;1372","","11/28/2024","38.05843335","-78.49667455828882"
"1013","GLEN ALLEN VA","Store","9901 Brook Rd","","Glen Allen","VA - Virginia","23059","804-515-1340","MM 610 West Broad","722;84;777;65;622;1372","","11/28/2024","37.6692964","-77.45999673517515"
"423","WEST BROAD VA","Store","11200 W Broad St","","Glen Allen","VA - Virginia","23060","804-364-5900","MM 610 West Broad","722;84;777;65;622;1372","","11/28/2024","37.650793199999995","-77.60091010072499"
"1465","MECHANICSVILLE VA","Store","7297 Battle Hill Dr","","Mechanicsville","VA - Virginia","23111","804-559-5507","MISCELLANEOUS","722;84;777;65;622;1372","03/06/2021","08/08/2024","37.60378579591837","-77.35488589795919"
"1437","BRANDERMILL VA","Store","4931 Commonwealth Centre Pkwy","","Midlothian","VA - Virginia","23112","804-763-3787","MISCELLANEOUS","722;84;777;65;622;1372","02/27/2021","08/08/2024","37.4203326","-77.6294528"
"1444","WILLIAMSBURG VA","Store","210 Whittakers Trace","","Williamsburg","VA - Virginia","23185","757-220-1352","MM 613 Newport New","722;84;777;65;622;1372","","11/28/2024","0.0","0.0"
"422","CHESTERFIELD VA","Store","1560 W Koger Center Blvd","","Richmond","VA - Virginia","23235","804-897-8080","MM 610 West Broad","722;84;777;65;622;1372","","11/28/2024","0.0","0.0"
"421","CHESAPEAKE VA","Store","1340 Greenbrier Pkwy","","Chesapeake","VA - Virginia","23320","757-549-4635","MM 609 Virg Beach","722;84;777;65;622;1372","","11/28/2024","36.7733854","-76.2307217"
"766","CHESAPEAKE SQUARE VA","Store","4107 Portsmouth Blvd","","Chesapeake","VA - Virginia","23321","757-465-2306","MM 609 Virg Beach","722;84;777;65;622;1372","","11/28/2024","36.822167449999995","-76.4123889896315"
"1460","PRINCESS ANNE VA","Store","3334 Princess Anne Rd","","Virginia Beach","VA - Virginia","23456","757-368-5312","MM 609 Virg Beach","722;84;777;65;622;1372","","11/28/2024","36.773769650000006","-76.08715492236877"
"420","VIRGINIA BEACH VA","Store","217 Independence Blvd","","Virginia Beach","VA - Virginia","23462","757-493-9232","MM 609 Virg Beach","722;84;777;65;622;1372","","11/28/2024","36.8363322","-76.1386443773772"
"479","NEWPORT NEWS VA","Store","12151 Jefferson Ave","","Newport News","VA - Virginia","23602","757-930-8945","MM 613 Newport New","722;84;777;65;622;1372","","11/28/2024","37.1083078","-76.4989341423769"
"788","COLONIAL HEIGHTS VA","Store","723 Southpark Blvd","Ste 8","Colonial Heights","VA - Virginia","23834","804-504-0677","MM 610 West Broad","722;84;777;65;622;1372","","11/28/2024","37.25013155","-77.38657715488591"
"434","ROANOKE VA","Store","4707 Valley View Blvd NW","","Roanoke","VA - Virginia","24012","540-362-4080","MM 611 Roanoke","2358;84;777;65;2630;1372","","11/28/2024","37.2992107","-79.9595124"
"1149","CHRISTIANSBURG VA","Store","105 Shoppers Way","","Christiansburg","VA - Virginia","24073","540-382-9517","MM 611 Roanoke","2358;84;777;65;2630;1372","","11/28/2024","37.1672246","-80.42387718126234"
"2492","STAUNTON SEC MKT WH","Store","1 INDUSTRY WAY","","STAUNTON","VA - Virginia","24401","999-999-9999","MISCELLANEOUS","722;84;777;65;615;1372","","08/08/2024","38.186284","-79.024376"
"444","LYNCHBURG VA","Store","4024 Wards Rd","Ste A","Lynchburg","VA - Virginia","24502","434-239-9885","MM 611 Roanoke","2358;84;777;65;2630;1372","","11/28/2024","37.349179649999996","-79.18897903615589"
"1266","CHARLESTON WV","Store","39 RHL Blvd","","Charleston","WV - West Virginia","25309","304-744-7270","MM 671 Huntington","723;87;777;65;623;1372","","11/28/2024","38.32588971759305","-81.71490257796773"
"1528","MARTINSBURG WV","Store","276 Retail Commons Pkwy","","Martinsburg","WV - West Virginia","25403","304-262-5538","MM 578 Frederick","722;84;777;65;622;1372","","11/28/2024","39.4397827","-77.99300028389982"
"573","HUNTINGTON WV","Store","6 Mall Rd","","Barboursville","WV - West Virginia","25504","304-733-0443","MM 671 Huntington","723;87;777;65;623;1372","","11/28/2024","38.420586285716674","-82.26209373702102"
"1798","WHEELING WV","Store","150 Satterfield Dr","","Triadelphia","WV - West Virginia","26059","304-243-9979","MM 678 Granville","723;87;777;65;623;1372","","11/28/2024","40.05767405","-80.59860984170163"
"832","MORGANTOWN WV","Store","3294 University Town Centre Dr","","Morgantown","WV - West Virginia","26501","304-598-9052","MM 678 Granville","723;87;777;65;623;1372","","11/28/2024","39.650854100000004","-80.00507703168071"
"158","WINSTON-SALEM NC","Store","1980 Griffith Rd","","Winston-Salem","NC - North Carolina","27103","336-768-1277","MM 607 Greensboro","2358;84;777;65;2630;1372","","11/28/2024","36.064686550000005","-80.3083709"
"648","BURLINGTON NC","Store","1465 University Dr","","Burlington","NC - North Carolina","27215","336-584-0297","MM 607 Greensboro","2358;84;777;65;2630;1372","","11/28/2024","36.0655189","-79.5217593"
"155","GREENSBORO NC","Store","1701 S 40 Dr","","Greensboro","NC - North Carolina","27407","336-297-1242","MM 607 Greensboro","2358;84;777;65;2630;1372","","11/28/2024","36.053996600000005","-79.88950419493423"
"147","CARY NC","Store","237 Crossroads Blvd","","Cary","NC - North Carolina","27518","919-851-1868","MM 606 Cary","2358;84;777;65;2630;1372","","11/28/2024","35.7621914","-78.7397381"
"574","GARNER NC","Store","120 Shenstone Ln","","Garner","NC - North Carolina","27529","919-772-2025","MM 614 Raleigh","2358;84;777;65;2630;1372","","11/28/2024","0.0","0.0"
"1492","KNIGHTDALE NC","Store","214 Hinton Oaks Blvd","","Knightdale","NC - North Carolina","27545","919-804-6039","MM 614 Raleigh","2358;84;777;65;2630;1372","","11/28/2024","35.7963723","-78.51282"
"299","CRABTREE NC","Store","4325 Glenwood Ave","Ste 3006","Raleigh","NC - North Carolina","27612","919-782-4323","MM 606 Cary","2358;84;777;65;2630;1372","","11/28/2024","35.8386467","-78.6768807"
"821","RALEIGH NC","Store","6280 Capital Blvd","","Raleigh","NC - North Carolina","27616","919-874-2039","MM 614 Raleigh","2358;84;777;65;2630;1372","","11/28/2024","35.8695294","-78.5790173"
"160","DURHAM NC","Store","5454 New Hope Commons Dr","New Hope Commons","Durham","NC - North Carolina","27707","919-403-2333","MM 606 Cary","2358;84;777;65;2630;1372","","11/28/2024","35.953455000000005","-78.9987506880727"
"1051","DURHAM SOUTHPOINT NC","Store","7001 Fayetteville Rd","Ste 113","Durham","NC - North Carolina","27713","919-544-4354","MM 606 Cary","2358;84;777;65;2630;1372","","11/28/2024","35.9023568","-78.9365841"
"386","GREENVILLE NC","Store","3140 Evans St","","Greenville","NC - North Carolina","27834","252-321-4984","MM 614 Raleigh","2358;84;777;65;2630;1372","","11/28/2024","35.5759866558559","-77.38214177392607"
"1892","WILSON NC","Store","3401 Raleigh Road Pkwy W","Ste 5D","Wilson","NC - North Carolina","27896","252-206-8789","MM 614 Raleigh","2358;84;777;65;2630;1372","","11/28/2024","35.7400154","-77.9654253599665"
"268","CONCORD MILLS NC","Store","8210 Concord Mills Blvd","","Concord","NC - North Carolina","28027","704-979-7839","MM 249 N Charlotte","2358;84;777;65;2630;1372","","11/28/2024","35.371596521288566","-80.71923919565212"
"175","GASTONIA NC","Store","3050 E Franklin Blvd","","Gastonia","NC - North Carolina","28056","704-869-9270","MMkt 251 Pineville","2358;84;777;65;2630;1372","","11/28/2024","35.260018","-81.122254"
"261","MATTHEWS NC","Store","2109 Matthews Township Pkwy","","Matthews","NC - North Carolina","28105","704-845-3439","MM 250 S Charlotte","2358;84;777;65;2630;1372","","11/28/2024","35.1273347","-80.70465877910748"
"2502","MONROE NC","Store","2115 W Roosevelt Blvd","Ste 127","Monroe","NC - North Carolina","28110","704-218-5750","MM 250 S Charlotte","2358;84;777;65;2630;1372","","11/28/2024","35.003506","-80.5588731"
"1133","MOORESVILLE NC","Store","633 River Hwy","","Mooresville","NC - North Carolina","28117","704-799-3255","MM 249 N Charlotte","2358;84;777;65;2630;1372","","11/28/2024","35.5938309","-80.87535975792865"
"262","PINEVILLE NC","Store","10600 Centrum Pkwy","","Pineville","NC - North Carolina","28134","704-543-4575","MISCELLANEOUS","718;84;777;65;618;1372","07/03/2021","08/08/2024","35.0889852","-80.8791256"
"2628","PINEVILLE SERVICE","Store","10600 Centrum Pkwy","","Pineville","NC - North Carolina","28134","999-999-9999","DISTRICT 117","718;84;777;65;1372","","08/28/2024","35.0889852","-80.8791256"
"2653","PINEVILLE OUTLET","Store","10600 Centrum Pkwy","","Pineville","NC - North Carolina","28134","704-544-6240","MMkt 251 Pineville","2358;84;777;65;2630;1372","","11/28/2024","35.0889852","-80.8791256"
"1108","MIDTOWN CHARLOTTE NC","Store","1055 Metropolitan Ave","Ste 100","Charlotte","NC - North Carolina","28204","704-333-1032","MM 249 N Charlotte","2358;84;777;65;2630;1372","","11/28/2024","35.2133524","-80.8350815"
"2680","YB Charlotte NC","Store","4425 Sharon Rd","Ste S10","Charlotte","NC - North Carolina","28211","999-999-9999","MISCELLANEOUS","2358;84;777;65;2630;1372","","06/25/2024","35.151861499999995","-80.82715451861867"
"2630","CHARLOTTE SERVICE","Store","8737 Todd Rd","Door 101","Charlotte","NC - North Carolina","28214","980-500-7704","MM 249 N Charlotte","2358;84;777;65;2630;1372","","08/28/2024","35.24137825388872","-80.95973230929543"
"1155","CHARLOTTE N LAKE NC","Store","10221 Perimeter Pkwy","","Charlotte","NC - North Carolina","28216","704-598-0172","MM 249 N Charlotte","2358;84;777;65;2630;1372","","11/28/2024","35.3477904","-80.85282506976375"
"6507","CHARLOTTE CUSTOM","Store","10221 Perimeter Pkwy","","Charlotte","NC - North Carolina","28216","999-999-9999","D82","718;84;777;65;618;1372","","08/08/2024","35.3477904","-80.85282506976375"
"3130","IHA MARKET 30","Store","5625 PARKWAY PLAZA BLVD","STE 125","CHARLOTTE","NC - North Carolina","28217","888-237-8289","MISCELLANEOUS","718;84;777;65;618;1372","05/02/2024","08/08/2024","35.183372453248985","-80.90274731442432"
"1699","NRT CAROLINA FLD SVC","Store","7421 E INDEPENDENCE BLVD","","CHARLOTTE","NC - North Carolina","28227","864-809-0282","MISCELLANEOUS","718;84;777;65;618;1372","","08/08/2024","35.16186605","-80.73628118300493"
"1107","CHARLOTTE RIVRGTE NC","Store","14125 River Gate Pkwy","","Charlotte","NC - North Carolina","28273","704-587-1760","MMkt 251 Pineville","2358;84;777;65;2630;1372","","11/28/2024","0.0","0.0"
"1767","BLAKENEY NC","Store","9839 Rea Rd","","Charlotte","NC - North Carolina","28277","704-814-1739","MM 250 S Charlotte","2358;84;777;65;2630;1372","","11/28/2024","35.03457415","-80.80336785287966"
"174","FAYETTEVILLE NC","Store","2034 Skibo Rd","","Fayetteville","NC - North Carolina","28314","910-868-3707","MM 550 Fayettevlle","2358;84;777;65;2630;1372","","11/28/2024","35.05601645","-78.973397209192"
"601","ABERDEEN NC","Store","11088 N US Highway 15 501","100 Aberdeen Commons","Aberdeen","NC - North Carolina","28315","910-693-2745","MM 550 Fayettevlle","2358;84;777;65;2630;1372","","11/28/2024","0.0","0.0"
"378","WILMINGTON NC","Store","309 S College Rd","","Wilmington","NC - North Carolina","28403","910-790-2021","MM 552 Wilmington","2358;84;777;65;2630;1372","","11/28/2024","34.23609105","-77.87025119798702"
"805","JACKSONVILLE NC","Store","1116 Western Blvd","","Jacksonville","NC - North Carolina","28546","910-478-3145","MM 552 Wilmington","2358;84;777;65;2630;1372","","11/28/2024","34.7822275","-77.3944478"
"1451","MOREHEAD CITY NC","Store","5171 US Highway 70 W","","Morehead City","NC - North Carolina","28557","252-726-8238","MM 552 Wilmington","2358;84;777;65;2630;1372","","11/28/2024","0.0","0.0"
"425","HICKORY NC","Store","1884 Catawba Valley Blvd SE","","Hickory","NC - North Carolina","28602","828-261-0031","MMkt 251 Pineville","2358;84;777;65;2630;1372","","11/28/2024","35.7010015","-81.3099218"
"953","ASHEVILLE SOUTH NC","Store","10 McKenna Rd","","Arden","NC - North Carolina","28704","828-684-0485","MMkt 248 Asheville","2358;84;777;65;2630;1372","","11/28/2024","35.44685025","-82.53694621603654"
"1263","3PP RECOMM GP-NC","Store","165 One Genesis Way","","Spruce Pine","NC - North Carolina","28777","631-994-3200","MISCELLANEOUS","2358;84;777;65;2630;1372","","08/08/2024","0.0","0.0"
"1385","WAYNESVILLE NC","Store","45 Plaza Pl","","Waynesville","NC - North Carolina","28786","828-454-7038","MMkt 248 Asheville","2358;84;777;65;2630;1372","","11/28/2024","35.4653572","-83.01098014130775"
"445","ASHEVILLE NC","Store","83 S Tunnel Rd","","Asheville","NC - North Carolina","28805","828-298-2330","MMkt 248 Asheville","2358;84;777;65;2630;1372","","11/28/2024","35.5799845","-82.5241095"
"1466","LEXINGTON SC","Store","5135 Sunset Blvd","Ste V","Lexington","SC - South Carolina","29072","803-957-0590","MM 551 Columb Mall","2358;717;777;65;2630;1372","","11/28/2024","34.005964","-81.1949031"
"264","COLUMBIA SC","Store","370 Harbison Blvd","","Columbia","SC - South Carolina","29212","803-749-2188","MM 551 Columb Mall","2358;717;777;65;2630;1372","","11/28/2024","34.07619655","-81.1526933105263"
"1515","SPRING VALLEY SC","Store","10136 Two Notch Rd","Ste 109D","Columbia","SC - South Carolina","29229","803-462-6339","MM 551 Columb Mall","2358;717;777;65;2630;1372","","11/28/2024","34.1162916","-80.87898680421654"
"294","SPARTANBURG SC","Store","110 E Blackstock Rd","","Spartanburg","SC - South Carolina","29301","864-574-3038","MM 247 Wst Carolinas","2358;717;777;65;2630;1372","","11/28/2024","34.935111","-81.99249481497462"
"517","CHARLESTON SC","Store","7612 Rivers Ave","","North Charleston","SC - South Carolina","29406","843-553-9299","MM 561 West Ashley","2358;717;777;65;2630;1372","","11/28/2024","32.9415252","-80.03732388475065"
"1120","WEST ASHLEY SC","Store","1987 Sam Rittenberg Blvd","","Charleston","SC - South Carolina","29407","843-763-4338","MM 561 West Ashley","2358;717;777;65;2630;1372","","11/28/2024","32.79477315","-80.02629865442279"
"1428","SUMMERVILLE SC","Store","321 Azalea Square Blvd","","Summerville","SC - South Carolina","29483","843-486-5066","MM 561 West Ashley","2358;717;777;65;2630;1372","","11/28/2024","0.0","0.0"
"826","FLORENCE SC","Store","2701 David H McLeod Blvd","Ste 47","Florence","SC - South Carolina","29501","843-661-5199","MM 551 Columb Mall","2358;717;777;65;2630;1372","","11/28/2024","34.19061965","-79.82949818109299"
"855","MYRTLE BEACH SC","Store","1145 Oak Forest Ln","","Myrtle Beach","SC - South Carolina","29577","843-626-9357","MM 552 Wilmington","2358;717;777;65;2630;1372","","11/28/2024","33.7060609","-78.91822662566516"
"272","GREENVILLE SC","Store","1125 Woodruff Rd","Ste 1201","Greenville","SC - South Carolina","29607","864-329-1291","MM 247 Wst Carolinas","2358;717;777;65;2630;1372","","11/28/2024","34.830823550000005","-82.29811674088661"
"520","ANDERSON SC","Store","3601 Clemson Blvd","","Anderson","SC - South Carolina","29621","864-224-7702","MM 247 Wst Carolinas","2358;717;777;65;2630;1372","","11/28/2024","34.5516282","-82.68054711928046"
"894","ROCK HILL SC","Store","1775 Chamberside Dr","","Rock Hill","SC - South Carolina","29730","803-366-8000","MM 250 S Charlotte","2358;717;777;65;2630;1372","","11/28/2024","34.93875335","-80.97716874537157"
"664","BLUFFTON SC","Store","1007 Fording Island Rd","","Bluffton","SC - South Carolina","29910","843-815-5590","MM 558 Savannah","2358;717;777;65;2630;1372","","11/28/2024","32.258455","-80.850134"
"389","CONYERS GA","Store","1540 Dogwood Dr SE","","Conyers","GA - Georgia","30013","678-526-8199","MM 562 McDonough","718;717;777;65;618;1372","","11/28/2024","33.650023","-83.9933771"
"516","ALPHARETTA GA","Store","975 N Point Dr","RM 180","Alpharetta","GA - Georgia","30022","678-339-1321","MM 560 Alpharetta","718;717;777;65;618;1372","","11/28/2024","34.052205","-84.28451607718898"
"1408","CUMMING GA","Store","2085 Market Place Blvd","","Cumming","GA - Georgia","30041","678-947-0448","MM 560 Alpharetta","718;717;777;65;618;1372","","11/28/2024","34.19299475","-84.13019640830834"
"776","SNELLVILLE GA","Store","1679 Scenic Hwy N","Ste 100","Snellville","GA - Georgia","30078","770-810-2087","MM 553 Mall of GA","718;717;777;65;618;1372","","11/28/2024","0.0","0.0"
"502","SMYRNA GA","Store","2460 Cobb Pkwy SE","","Smyrna","GA - Georgia","30080","770-859-9266","MM 554 Kennesaw","718;717;777;65;618;1372","","11/28/2024","0.0","0.0"
"513","NORTHLAKE GA","Store","4135 Lavista Rd","Ste C100","Tucker","GA - Georgia","30084","770-939-7660","MM 566 Buckhead","718;717;777;65;618;1372","","11/28/2024","33.8456287","-84.24885"
"504","GWINNETT GA","Store","1875 Pleasant Hill Rd","","Duluth","GA - Georgia","30096","770-381-9494","MM 553 Mall of GA","718;717;777;65;618;1372","","11/28/2024","33.95080385","-84.13066590904475"
"1227","ATLANTA CALL CENTER","Store","1875 PLEASANT HILL RD","","DULUTH","GA - Georgia","30096","999-999-9999","MISCELLANEOUS","718;717;777;65;618;1372","","08/08/2024","33.95080385","-84.13066590904475"
"1159","ACWORTH GA","Store","3335 Cobb Pkwy NW","","Acworth","GA - Georgia","30101","678-574-4715","MISCELLANEOUS","718;717;777;65;618;1372","03/05/2022","08/08/2024","0.0","0.0"
"1186","CANTON GA","Store","1810 Cumming Hwy","Ste 600","Canton","GA - Georgia","30115","770-721-7599","MM 554 Kennesaw","718;717;777;65;618;1372","","11/28/2024","34.2361997","-84.4615773"
"519","DOUGLASVILLE GA","Store","6875 Douglas Blvd","RM 519","Douglasville","GA - Georgia","30135","770-577-0930","MM 554 Kennesaw","718;717;777;65;618;1372","","11/28/2024","33.72777755","-84.75788377005159"
"1486","HIRAM GA","Store","5025 Jimmy Lee Smith Pkwy","","Hiram","GA - Georgia","30141","678-567-0126","MM 554 Kennesaw","718;717;777;65;618;1372","","11/28/2024","33.8897471","-84.74535289200837"
"501","KENNESAW GA","Store","850 Cobb Place Blvd NW","","Kennesaw","GA - Georgia","30144","770-424-7868","MM 554 Kennesaw","718;717;777;65;618;1372","","11/28/2024","34.011392349999994","-84.57056350014074"
"2641","KENNESAW OUTLET","Store","2500 Cobb Place Lane NW","STE 320","Kennesaw","GA - Georgia","30144","470-689-6202","MM 554 Kennesaw","718;717;777;65;618;1372","","11/28/2024","34.0127165","-84.571927"
"668","MCDONOUGH GA","Store","1861 Jonesboro Rd","","McDonough","GA - Georgia","30253","770-914-1124","MM 562 McDonough","718;717;777;65;618;1372","","11/28/2024","33.46360395","-84.21805870297632"
"505","SOUTHLAKE GA","Store","1980 Mount Zion Rd","","Morrow","GA - Georgia","30260","770-472-8958","MM 562 McDonough","718;717;777;65;618;1372","","11/28/2024","33.565753900000004","-84.32374772726067"
"1037","NEWNAN GA","Store","312 Newnan Crossing Byp E","","Newnan","GA - Georgia","30265","678-423-7991","MM 562 McDonough","718;717;777;65;618;1372","","11/28/2024","33.35247290449252","-84.76676200732383"
"1049","PEACHTREE CITY GA","Store","2703 Hwy 54","","Peachtree City","GA - Georgia","30269","678-364-1025","MM 562 McDonough","718;717;777;65;618;1372","","11/28/2024","33.42710414591361","-84.55729518171596"
"896","EDGEWOOD GA","Store","1210 Caroline St NE","","Atlanta","GA - Georgia","30307","404-827-0137","MM 566 Buckhead","718;717;777;65;618;1372","","11/28/2024","33.75934255","-84.34874195458893"
"890","BUCKHEAD GA","Store","2537 Piedmont Rd NE","","Atlanta","GA - Georgia","30324","404-842-0938","MM 566 Buckhead","718;717;777;65;618;1372","","11/28/2024","33.8240856","-84.363139"
"503","PERIMETER GA","Store","1201 Hammond Dr NE","Ste C","Dunwoody","GA - Georgia","30346","770-391-4749","MM 560 Alpharetta","718;717;777;65;618;1372","","11/28/2024","33.9196491","-84.339716"
"2468","IHA MARKET 6","Store","500 Northridge Rd","Ste 690","Atlanta","GA - Georgia","30350","888-237-8289","MISCELLANEOUS","718;717;777;65;618;1372","05/01/2024","08/08/2024","0.0","0.0"
"1071","GAINESVILLE GA","Store","670 Dawsonville Hwy","","Gainesville","GA - Georgia","30501","770-297-2908","MM 553 Mall of GA","718;717;777;65;618;1372","","11/28/2024","34.2970489","-83.853424"
"618","ATLANTA - SVC","Store","1605 Broadmoor Blvd","STE 905","Buford","GA - Georgia","30518","770-614-6668","Atlanta North","718;717;72;65;618","","08/28/2024","34.10382661055239","-84.01983457198114"
"1233","ATLANTA SALE EVENT","Store","1605 Broadmoor Blvd NE","","Buford","GA - Georgia","30518","470-655-4100","MISCELLANEOUS","718;717;777;65;618;1372","","08/08/2024","34.10776913875113","-84.01718677795837"
"1690","ATLANTA FLD SVC","Store","1605 BROADMOOR BLVD","STE 905","BUFORD","GA - Georgia","30518","678-794-4325","MISCELLANEOUS","718;717;777;65;618;1372","","08/08/2024","34.10382661055239","-84.01983457198114"
"426","MALL OF GEORGIA GA","Store","3205 Woodward Crossing Blvd","Ste A","Buford","GA - Georgia","30519","770-614-0533","MM 553 Mall of GA","718;717;777;65;618;1372","","11/28/2024","34.07034005","-83.98187388941125"
"511","ATHENS GA","Store","1791 Oconee Connector","Ste 110","Athens","GA - Georgia","30606","706-354-2139","MM 553 Mall of GA","718;717;777;65;618;1372","","11/28/2024","33.91570745","-83.45291120993087"
"2483","AMER REMFG CO REFURB","Store","1840 Gordon Hwy","","Augusta","GA - Georgia","30904","999-999-9999","MISCELLANEOUS","718;717;777;65;618;1372","","08/08/2024","33.451233375870146","-82.03540309214475"
"507","AUGUSTA GA","Store","3667 Walton Way Ext","","Augusta","GA - Georgia","30909","706-733-9155","MM 551 Columb Mall","2358;717;777;65;2630;1372","","11/28/2024","0.0","0.0"
"2494","DUBLIN SEC MK WH","Store","100 BEST BUY DR","","DUBLIN","GA - Georgia","31021","999-999-9999","MISCELLANEOUS","718;717;777;65;618;1372","","08/08/2024","0.0","0.0"
"1185","WARNER ROBINS GA","Store","3040 Watson Blvd","","Warner Robins","GA - Georgia","31093","478-971-4445","MM 568 Macon","718;717;777;65;618;1372","","11/28/2024","32.619328249999995","-83.69280299760561"
"365","MACON GA","Store","4676 Presidential Pkwy","","Macon","GA - Georgia","31206","478-471-0900","MM 568 Macon","718;717;777;65;618;1372","","11/28/2024","32.817173","-83.712616"
"508","SAVANNAH GA","Store","7929 Abercorn St","Bldg 5","Savannah","GA - Georgia","31406","912-920-9240","MM 558 Savannah","2358;717;777;65;2630;1372","","11/28/2024","32.0032308","-81.1252784"
"789","VALDOSTA GA","Store","1705 Norman Dr","","Valdosta","GA - Georgia","31601","229-247-9079","MM 619 Tallahassee","728;717;777;65;618;1372","","11/28/2024","30.84308758930003","-83.3181389264612"
"843","COLUMBUS GA","Store","6499 Whittlesey Blvd","Ste C","Columbus","GA - Georgia","31909","706-322-3541","MM 596 Columbus","718;717;777;65;618;1372","","11/28/2024","32.549529500000006","-84.94067625356209"
"515","DAYTONA BEACH FL","Store","1900 W International Speedway","Ste 200","Daytona Beach","FL - Florida","32114","386-226-2267","MM 621 Melbourne","728;717;777;65;618;1372","","11/28/2024","0.0","0.0"
"1763","LADY LAKE FL","Store","552 N US Hwy 27","","Lady Lake","FL - Florida","32159","352-674-2039","MM 618 Ocala","728;717;777;65;618;1372","","11/28/2024","28.936662493813543","-81.94035793147278"
"1475","JACKSONVILLE N FL","Store","13141 City Station Dr","Ste 133","Jacksonville","FL - Florida","32218","904-714-6087","MM 635 Saint Johns","728;717;777;65;618;1372","","11/28/2024","30.47566895","-81.64278657035028"
"429","JACKSONVILLE FL","Store","9355 Atlantic Blvd","","Jacksonville","FL - Florida","32225","904-725-7500","MISCELLANEOUS","728;717;777;65;618;1372","03/06/2021","08/08/2024","30.318319093750002","-81.5558730625"
"430","ORANGE PARK FL","Store","8151 Blanding Blvd","","Jacksonville","FL - Florida","32244","904-779-7474","MM 635 Saint Johns","728;717;777;65;618;1372","","11/28/2024","30.1985459","-81.7381383"
"1790","SAINT JOHNS FL","Store","4906 Town Center Pkwy","Ste 200","Jacksonville","FL - Florida","32246","904-928-1999","MM 635 Saint Johns","728;717;777;65;618;1372","","11/28/2024","30.256608","-81.5335116"
"350","THE AVENUES FL","Store","9930 Southside Blvd","","Jacksonville","FL - Florida","32256","904-519-7775","MM 635 Saint Johns","728;717;777;65;618;1372","","11/28/2024","30.1902227","-81.5542093"
"435","TALLAHASSEE FL","Store","1400 Apalachee Pkwy","","Tallahassee","FL - Florida","32301","850-942-2300","MM 619 Tallahassee","728;717;777;65;618;1372","","11/28/2024","30.437489","-84.25921487393539"
"857","PANAMA CITY FL","Store","1000 E 23rd St","","Panama City","FL - Florida","32405","850-767-5979","MM 617 Destin","718;717;777;65;618;1372","","11/28/2024","30.188347","-85.6442696"
"395","PENSACOLA FL","Store","5480 N 9th Ave","","Pensacola","FL - Florida","32504","850-969-0503","MM 617 Destin","718;717;777;65;618;1372","","11/28/2024","30.4773226","-87.206709"
"799","DESTIN FL","Store","34940 Emerald Coast Pkwy","Unit 150","Destin","FL - Florida","32541","850-269-2140","MM 617 Destin","718;717;777;65;618;1372","","11/28/2024","30.3870772","-86.4249534"
"424","GAINESVILLE FL","Store","3750 SW Archer Rd","","Gainesville","FL - Florida","32608","352-379-8500","MM 618 Ocala","728;717;777;65;618;1372","","11/28/2024","0.0","0.0"
"509","ALTAMONTE SPRINGS FL","Store","597 W State Road 436","","Altamonte Springs","FL - Florida","32714","407-865-9977","MM 632 Winter Gard","728;717;777;65;618;1372","","11/28/2024","0.0","0.0"
"608","SANFORD FL","Store","1501 Rinehart Rd","","Sanford","FL - Florida","32771","407-328-0468","MM 632 Winter Gard","728;717;777;65;618;1372","","11/28/2024","28.80139425","-81.32954072887725"
"157","EAST COLONIAL FL","Store","4601 E Colonial Dr","","Orlando","FL - Florida","32803","407-894-5003","MM 632 Winter Gard","728;717;777;65;618;1372","","11/28/2024","28.5547525","-81.32907536714163"
"3131","IHA MARKET 31","Store","4597 E COLONIAL DR","","ORLANDO","FL - Florida","32803","888-237-8289","MISCELLANEOUS","728;717;777;65;618;1372","05/02/2024","08/08/2024","28.553207604026845","-81.32923260402684"
"510","FLORIDA MALL FL","Store","8350 S Orange Blossom Trl","","Orlando","FL - Florida","32809","407-855-6114","MM 633 Kissimmee","728;717;777;65;618;1372","","11/28/2024","28.4437915","-81.4038023"
"571","WATERFORD LAKES FL","Store","845 N Alafaya Trl","","Orlando","FL - Florida","32828","407-482-8099","MM 633 Kissimmee","728;717;777;65;618;1372","","11/28/2024","28.430816039271328","-81.24028314225471"
"8222","SatRtl Hyatt Grand C","Store","1 Grand Cypress Blvd","","Orlando","FL - Florida","32836","999-999-9999","MISCELLANEOUS","728;717;777;65;618;1372","01/20/2024","07/06/2024","28.3820693","-81.51009677068883"
"1530","MILLENIA MALL FL","Store","4155 Millenia Blvd","","Orlando","FL - Florida","32839","407-248-2439","MM 633 Kissimmee","728;717;777;65;618;1372","","11/28/2024","28.4911387","-81.4311893"
"512","MELBOURNE FL","Store","1900 Evans Rd","Melbourne Square","Melbourne","FL - Florida","32904","321-768-6840","MM 621 Melbourne","728;717;777;65;618;1372","","11/28/2024","28.0798326","-80.6550539"
"816","VERO BEACH FL","Store","6156 20th St","","Vero Beach","FL - Florida","32966","772-778-0679","MM 621 Melbourne","728;717;777;65;618;1372","","11/28/2024","27.6412401","-80.4537489"
"555","HIALEAH FL","Store","4001 W 20th Ave","","Hialeah","FL - Florida","33012","305-819-0722","MM 710 Doral","728;717;777;65;618;1372","","11/28/2024","25.8584341","-80.32164042421087"
"559","PEMBROKE PINES FL","Store","11450 Pines Blvd","","Pembroke Pines","FL - Florida","33026","954-441-6135","MM 639 Sawgrass","728;717;777;65;618;1372","","11/28/2024","26.0063313","-80.3008355"
"1178","FLORIDA CITY FL","Store","33590 S Dixie Hwy","","Florida City","FL - Florida","33034","786-349-6446","MM 640 W Kendall","728;717;777;65;618;1372","","11/28/2024","25.45554685","-80.47656205995398"
"1424","MARGATE FL","Store","3300 NW 62nd Ave","","Margate","FL - Florida","33063","954-975-2857","MISCELLANEOUS","728;717;777;65;618;1372","03/02/2024","08/08/2024","26.2706078","-80.2052356"
"2550","MARGATE OUTLET","Store","3300 NW 62nd Ave","","Margate","FL - Florida","33063","954-917-6600","MM 704 Ft Lauderdl","728;717;777;65;618;1372","","11/28/2024","26.2706078","-80.2052356"
"1136","CORAL SPRINGS FL","Store","650 N University Dr","","Coral Springs","FL - Florida","33071","954-341-0256","MM 704 Ft Lauderdl","728;717;777;65;618;1372","","11/28/2024","26.2394592","-80.2558372"
"1498","MIAMI BEACH FL","Store","1131 5th St","","Miami Beach","FL - Florida","33139","305-535-8539","MM 643 Aventura","728;717;777;65;618;1372","","11/28/2024","25.7752785","-80.1396408"
"557","DADELAND FL","Store","8450 S Dixie Hwy","Dadeland Station","Miami","FL - Florida","33143","305-662-7073","MM 640 W Kendall","728;717;777;65;618;1372","","11/28/2024","25.6934294","-80.3058012"
"553","TROPICAIRE FL","Store","7751 Bird Rd","Tropicaire Shopping Center","Miami","FL - Florida","33155","305-267-9913","MM 710 Doral","728;717;777;65;618;1372","","11/28/2024","25.7340766","-80.3199008"
"1503","PINECREST FL","Store","11905 S Dixie Hwy","","Miami","FL - Florida","33156","305-971-5039","MISCELLANEOUS","728;717;777;65;618;1372","10/28/2023","08/08/2024","25.6601122","-80.3257089"
"1502","DORAL FL","Store","10760 NW 17th St","","Miami","FL - Florida","33172","786-845-2999","MM 710 Doral","728;717;777;65;618;1372","","11/28/2024","25.78928715","-80.37038442882175"
"628","MIAMI - SVC","Store","10900c NW 97th St","","Miami","FL - Florida","33178","305-420-1044","South Florida","718;84;72;65;628","","08/28/2024","0.0","0.0"
"1696","MIAMI FLD SVC","Store","10900 C NW 97TH ST","","MEDLEY","FL - Florida","33178","954-444-4835","MISCELLANEOUS","728;717;777;65;618;1372","","08/08/2024","0.0","0.0"
"558","AVENTURA FL","Store","21035 Biscayne Blvd","","Aventura","FL - Florida","33180","305-933-9025","MM 643 Aventura","728;717;777;65;618;1372","","11/28/2024","25.970409150000002","-80.14230761775138"
"552","WEST KENDALL FL","Store","12495 SW 88th St","","Miami","FL - Florida","33186","305-275-8338","MM 640 W Kendall","728;717;777;65;618;1372","","11/28/2024","25.68739685","-80.39545709110912"
"543","FORT LAUDERDALE FL","Store","1901 N Federal Hwy","","Fort Lauderdale","FL - Florida","33305","954-564-7733","MM 704 Ft Lauderdl","728;717;777;65;618;1372","","11/28/2024","26.1533482","-80.1194533"
"551","SAWGRASS FL","Store","12301 W Sunrise Blvd","Flamingo Shopping Center","Plantation","FL - Florida","33323","954-423-1999","MM 639 Sawgrass","728;717;777;65;618;1372","","11/28/2024","26.1471766","-80.3126866"
"3132","IHA MARKET 32","Store","12301 W SUNRISE BLVD","","PLANTATION","FL - Florida","33323","888-237-8289","MISCELLANEOUS","728;717;777;65;618;1372","05/02/2024","08/08/2024","26.1471766","-80.3126866"
"1258","DAVIE FL","Store","2200 S University Dr","","Davie","FL - Florida","33324","954-916-6999","MM 639 Sawgrass","728;717;777;65;618;1372","","11/28/2024","26.0924257","-80.2476289"
"550","WEST PALM BEACH FL","Store","1880 Palm Beach Lakes Blvd","","West Palm Beach","FL - Florida","33401","561-688-1944","MM 646 N Palm Beac","728;717;777;65;618;1372","","11/28/2024","26.719177950000002","-80.08780395"
"688","NORTH PALM BEACH FL","Store","11231 Legacy Ave","","Palm Beach Gardens","FL - Florida","33410","561-694-0366","MM 646 N Palm Beac","728;717;777;65;618;1372","","11/28/2024","26.83980379398728","-80.09265057416913"
"2686","YB Palm Beach Grd FL","Store","11375 Legacy Ave","Ste 110","Palm Beach Gardens","FL - Florida","33410","999-999-9999","MISCELLANEOUS","728;717;777;65;618;1372","","06/25/2024","26.842630240954335","-80.09021166866766"
"1168","WELLINGTON FL","Store","1040 S State Road 7","","Wellington","FL - Florida","33414","561-792-7323","MM 646 N Palm Beac","728;717;777;65;618;1372","","11/28/2024","0.0","0.0"
"808","BOYNTON BEACH FL","Store","550 N Congress Ave","","Boynton Beach","FL - Florida","33426","561-752-1948","MM 646 N Palm Beac","728;717;777;65;618;1372","","11/28/2024","26.5324317","-80.08807060935735"
"554","BOCA RATON FL","Store","20540 State Road 7","Shadowood Square","Boca Raton","FL - Florida","33498","561-477-5367","MM 704 Ft Lauderdl","728;717;777;65;618;1372","","11/28/2024","0.0","0.0"
"560","BRANDON FL","Store","116 Grand Regency Blvd","Regency Square","Brandon","FL - Florida","33510","813-643-1700","MM 711 South Tampa","728;717;777;65;618;1372","","11/28/2024","27.94224205","-82.32606399583648"
"1405","WESLEY CHAPEL FL","Store","5947 Wesley Grove Blvd","","Wesley Chapel","FL - Florida","33544","813-929-2100","MM 711 South Tampa","728;717;777;65;618;1372","","11/28/2024","28.244009849999998","-82.35275369528647"
"561","SOUTH TAMPA FL","Store","1725 N Dale Mabry Hwy","","Tampa","FL - Florida","33607","813-874-8814","MM 711 South Tampa","728;717;777;65;618;1372","","11/28/2024","27.9579907","-82.50381813989154"
"2678","YB Tampa FL","Store","111 S Dale Mabry Hwy","","Tampa","FL - Florida","33609","999-999-9999","MISCELLANEOUS","728;717;777;65;618;1373","","06/25/2024","27.9441045","-82.5057885"
"462","CITRUS PARK FL","Store","12675 Citrus Plaza Dr","","Tampa","FL - Florida","33625","813-792-1707","MM 711 South Tampa","728;717;777;65;618;1372","","11/28/2024","28.063253449999998","-82.57659959170036"
"565","ST PETERSBURG FL","Store","6600 22nd Avenue N","","Saint Petersburg","FL - Florida","33710","727-381-5223","MM 626 St Petersbg","728;717;777;65;618;1372","","11/28/2024","27.79039005","-82.73078113893507"
"564","CLEARWATER FL","Store","21415 US Highway 19 N","","Clearwater","FL - Florida","33765","727-669-0282","MM 626 St Petersbg","728;717;777;65;618;1372","","11/28/2024","27.98664842970522","-82.72973823612898"
"563","LAKELAND FL","Store","4215 US Highway 98 N","North Lake Plaza","Lakeland","FL - Florida","33809","863-859-0622","MM 711 South Tampa","728;717;777;65;618;1372","","11/28/2024","28.09496135","-81.9722639848005"
"1184","DAVENPORT FL","Store","6300 Grandview Pkwy","","Davenport","FL - Florida","33837","863-424-0589","MM 633 Kissimmee","728;717;777;65;618;1372","","11/28/2024","28.2366255","-81.6416148"
"1241","ORLANDO SALE EVENT","Store","8906 N Road 33","","Polk City","FL - Florida","33868","863-256-1311","MISCELLANEOUS","728;717;777;65;618;1372","","08/08/2024","0.0","0.0"
"1322","DAVENPORT SERVICE","Store","8906 N Road 33","DOCK DOOR #902","Polk City","FL - Florida","33868","863-256-1400","Orlando","728;717;777;65;1372","","08/08/2024","0.0","0.0"
"1229","GSCC DAVENPORT","Store","2314 WAVERLY BARN RD","","DAVENPORT","FL - Florida","33897","863-256-1311","MISCELLANEOUS","728;717;777;65;618;1372","","08/08/2024","0.0","0.0"
"1698","DAVENPORT FLD SVC","Store","2314 WAVERLY BARN RD","","DAVENPORT","FL - Florida","33897","863-256-1400","MISCELLANEOUS","728;717;777;65;618;1372","","08/08/2024","0.0","0.0"
"431","FORT MYERS FL","Store","5019 S Cleveland Ave","","Fort Myers","FL - Florida","33907","239-278-1298","MM 637 Naples","728;717;777;65;618;1372","","11/28/2024","26.5846438","-81.8698576"
"767","COCONUT POINT FL","Store","8000 Mediterranean Dr","","Estero","FL - Florida","33928","239-949-8146","MM 637 Naples","728;717;777;65;618;1372","","11/28/2024","26.4086407","-81.80994823713385"
"1539","PORT CHARLOTTE FL","Store","18700 Veterans Blvd","Unit 13","Port Charlotte","FL - Florida","33954","941-235-4199","MM 649 U Town Ctr","728;717;777;65;618;1372","","11/28/2024","27.0148396","-82.1456143"
"524","NAPLES FL","Store","6325 Naples Blvd","","Naples","FL - Florida","34109","239-597-8529","MM 637 Naples","728;717;777;65;618;1372","","11/28/2024","26.2214809","-81.7740643"
"1141","BRADENTON FL","Store","4210 14th St W","","Bradenton","FL - Florida","34205","941-755-8969","MM 649 U Town Ctr","728;717;777;65;618;1372","","11/28/2024","27.463591","-82.578082"
"562","SARASOTA FL","Store","4020 S Tamiami Trl","Glengarry Shoppes","Sarasota","FL - Florida","34231","941-923-3955","MM 649 U Town Ctr","728;717;777;65;618;1372","","11/28/2024","27.296343","-82.5323746"
"1452","UNIVERSITY TWN CR FL","Store","135 N Cattlemen Rd","","Sarasota","FL - Florida","34243","941-360-7959","MM 649 U Town Ctr","728;717;777;65;618;1372","","11/28/2024","27.3839681","-82.4579504"
"862","OCALA FL","Store","2499 SW 27th Ave","","Ocala","FL - Florida","34471","352-237-7995","MM 618 Ocala","728;717;777;65;618;1372","","11/28/2024","29.1638312","-82.1681069"
"1383","SPRING HILL FL","Store","1389 Wendy Ct","","Spring Hill","FL - Florida","34607","352-200-3478","MM 626 St Petersbg","728;717;777;65;618;1372","","11/28/2024","28.4547222","-82.632791"
"885","PORT RICHEY FL","Store","9409 US Highway 19","Ste 601","Port Richey","FL - Florida","34668","727-847-9338","MM 626 St Petersbg","728;717;777;65;618;1372","","11/28/2024","28.27026897456159","-82.72496814262658"
"1411","KISSIMMEE FL","Store","1620 W Osceola Pkwy","","Kissimmee","FL - Florida","34741","407-847-8617","MM 633 Kissimmee","728;717;777;65;618;1372","","11/28/2024","0.0","0.0"
"2642","OCOEE OUTLET","Store","9537 W Colonial Dr","","Ocoee","FL - Florida","34761","407-563-0383","MM 632 Winter Gard","728;717;777;65;618;1372","","11/28/2024","28.55328275","-81.51792869718643"
"1156","WINTER GARDEN FL","Store","3367 Daniels Rd","","Winter Garden","FL - Florida","34787","407-877-8032","MM 632 Winter Gard","728;717;777;65;618;1372","","11/28/2024","28.5231131","-81.581118"
"6508","ORLANDO CUSTOM","Store","3367 Daniels Rd","","Winter Garden","FL - Florida","34787","999-999-9999","D82","728;717;777;65;618;1372","","08/08/2024","28.5231131","-81.581118"
"881","JENSEN BEACH FL","Store","2555 NW Federal Hwy","","Stuart","FL - Florida","34994","772-692-7188","MM 621 Melbourne","728;717;777;65;618;1372","","11/28/2024","27.236279934343436","-80.26903319191919"
"1004","TRUSSVILLE AL","Store","5072 Pinnacle Sq","","Birmingham","AL - Alabama","35235","205-661-5010","MM 594 Hoover","718;717;777;65;618;1372","","11/28/2024","33.604154","-86.6425265"
"383","BIRMINGHAM AL","Store","5201 Highway 280","","Birmingham","AL - Alabama","35242","205-437-8966","MM 594 Hoover","718;717;777;65;618;1372","","11/28/2024","33.4192291","-86.6856597"
"807","HOOVER AL","Store","3780 Riverchase Vlg","Ste 200","Hoover","AL - Alabama","35244","205-682-9822","MM 594 Hoover","718;717;777;65;618;1372","","11/28/2024","0.0","0.0"
"1540","TUSCALOOSA AL","Store","1800 McFarland Blvd E","Ste 520","Tuscaloosa","AL - Alabama","35404","205-247-4039","MM 594 Hoover","718;717;777;65;618;1372","","11/28/2024","33.1947813","-87.5275393"
"514","HUNTSVILLE AL","Store","5850 University Dr NW","Unversity Plaza Ctr Ste B","Huntsville","AL - Alabama","35806","256-726-9844","MMkt 236 Brentwood","718;717;777;65;618;1372","","11/28/2024","34.741087","-86.6630613"
"836","MONTGOMERY AL","Store","7701 Eastchase Pkwy","","Montgomery","AL - Alabama","36117","334-272-1552","MM 596 Columbus","718;717;777;65;618;1372","","11/28/2024","32.3625676","-86.1568958"
"1097","OXFORD AL","Store","1100 Oxford Exchange Blvd","","Oxford","AL - Alabama","36203","256-832-0172","MM 594 Hoover","718;717;777;65;618;1372","","11/28/2024","33.6093958","-85.78066214992313"
"793","DOTHAN AL","Store","4863 Montgomery Hwy","Ste 100","Dothan","AL - Alabama","36303","334-671-1070","MM 617 Destin","718;717;777;65;618;1372","","11/28/2024","31.26939885","-85.44787128883874"
"678","SPANISH FORT AL","Store","10200 Eastern Shore Blvd","Ste 130","Spanish Fort","AL - Alabama","36527","251-626-0948","MM 586 Mobile","718;717;777;65;618;1372","","11/28/2024","30.664331","-87.8478561"
"340","MOBILE AL","Store","1310 Tingle Cir E","Ste K","Mobile","AL - Alabama","36606","251-478-6678","MM 586 Mobile","718;717;777;65;618;1372","","11/28/2024","0.0","0.0"
"662","AUBURN AL","Store","2147 Tiger Town Pkwy","","Opelika","AL - Alabama","36801","334-737-1770","MM 596 Columbus","718;717;777;65;618;1372","","11/28/2024","32.61787595","-85.40539435769045"
"1339","RECON GROUP","Store","3815 LOGISTICS WAY","","ANTIOCH","TN - Tennessee","37013","999-999-9999","MISCELLANEOUS","719;87;777;65;610;1372","","08/08/2024","0.0","0.0"
"170","BRENTWOOD TN","Store","1600 Galleria Blvd","","Brentwood","TN - Tennessee","37027","615-376-0539","MMkt 236 Brentwood","2356;717;777;65;2673;1372","","11/28/2024","35.9709126","-86.8077737"
"663","CLARKSVILLE TN","Store","2805 Wilma Rudolph Blvd","920","Clarksville","TN - Tennessee","37040","931-552-5239","MM Nashville North","2356;717;777;65;2673;1372","","11/28/2024","36.5859258","-87.29048431341187"
"8210","SatRtl Kroger Gdltsv","Store","123 Northcreek Blvd","","Goodlettsville","TN - Tennessee","37072","999-999-9999","MISCELLANEOUS","718;717;777;65;618;1372","10/30/2023","07/06/2024","36.326437850000005","-86.6987823209331"
"2472","ESSEX","Store","455 Industrial Blvd","","La Vergne","TN - Tennessee","37086","615-846-3938","MISCELLANEOUS","718;717;777;65;618;1372","","08/08/2024","35.98744112636693","-86.58336790444758"
"172","RIVERGATE TN","Store","2311 Gallatin Pike N","","Madison","TN - Tennessee","37115","615-859-0115","MM Nashville North","2356;717;777;65;2673;1372","","11/28/2024","0.0","0.0"
"1064","MT JULIET TN","Store","401 S Mt Juliet Rd","Ste 370","Mount Juliet","TN - Tennessee","37122","615-754-9200","MMkt 236 Brentwood","2356;717;777;65;2673;1372","","11/28/2024","36.1674648","-86.50745728668903"
"2471","ASSURANT","Store","255 Aldi Blvd","Dock #22","Mount Juliet","TN - Tennessee","37122","615-267-6100","MISCELLANEOUS","718;717;777;65;618;1372","","08/08/2024","0.0","0.0"
"8212","SatlRtl Veterans Pkw","Store","4432 Veterans Pkwy","","Murfreesboro","TN - Tennessee","37128","999-999-9999","MISCELLANEOUS","718;717;777;65;618;1372","10/30/2023","07/06/2024","35.844801649999994","-86.49142542196154"
"1425","MURFREESBORO TN","Store","2615 Medical Center Pkwy","Ste 100","Murfreesboro","TN - Tennessee","37129","615-893-2493","MMkt 236 Brentwood","2356;717;777;65;2673;1372","","11/28/2024","35.85926765","-86.4447851716572"
"3129","IHA MARKET 29","Store","2140 N THOMPSON LN","STE 101","MURFREESBORO","TN - Tennessee","37129","888-237-8289","MISCELLANEOUS","718;717;777;65;618;1372","05/02/2024","08/08/2024","35.89983784669487","-86.42036443826652"
"8204","TBB at MTSU - Kiosk","Store","1321 Greenland Dr","","Murfreesboro","TN - Tennessee","37130","999-999-9999","MISCELLANEOUS","718;717;777;65;618;1372","01/20/2024","08/08/2024","35.85491036999941","-86.36886179875417"
"1130","NASHVILLE WEST TN","Store","6810 Charlotte Pike","","Nashville","TN - Tennessee","37209","615-353-1184","MM Nashville North","2356;717;777;65;2673;1372","","11/28/2024","36.13425645435221","-86.88943070243066"
"1070","HIXSON TN","Store","5591 Hwy 153","Suite 124","Hixson","TN - Tennessee","37343","423-877-9929","MISCELLANEOUS","718;717;777;65;618;1372","03/04/2023","08/08/2024","0.0","0.0"
"488","CHATTANOOGA TN","Store","2288 Gunbarrel Rd","Ste 168","Chattanooga","TN - Tennessee","37421","423-296-6353","MMkt 242 Knoxville","718;717;777;65;618;1372","","11/28/2024","35.037427199999996","-85.14958648340729"
"899","JOHNSON CITY TN","Store","3222 Peoples St","","Johnson City","TN - Tennessee","37604","423-262-0329","MM 237 Tri-Cities","2358;84;777;65;2630;1372","","11/28/2024","36.34788455","-82.40073826828387"
"1085","THE PINNACLE TN","Store","567 Pinnacle Pkwy","","Bristol","TN - Tennessee","37620","423-845-6050","MM 237 Tri-Cities","2358;84;777;65;2630;1372","","11/28/2024","36.5926448","-82.25572739704852"
"169","KNOXVILLE TN","Store","8925 Towne and Country Cir","","Knoxville","TN - Tennessee","37923","865-769-5358","MMkt 242 Knoxville","718;717;777;65;618;1372","","11/28/2024","0.0","0.0"
"1382","TURKEY CREEK TN","Store","11491 Parkside Dr","","Farragut","TN - Tennessee","37934","865-218-9899","MISCELLANEOUS","718;717;777;65;618;1372","03/04/2023","08/09/2024","35.8998716","-84.166595"
"1399","POPLAR AVE TN","Store","5821 Poplar Ave","","Memphis","TN - Tennessee","38119","901-537-7999","MMkt 243 Memphis","74;717;777;65;610;1372","","11/28/2024","35.1006879","-89.86798316400152"
"165","MEMPHIS TN","Store","2755 Germantown Pkwy","Market of Wolfcreek","Memphis","TN - Tennessee","38133","901-373-8787","MMkt 243 Memphis","74;717;777;65;610;1372","","11/28/2024","35.20073924489796","-89.79238553061225"
"853","JACKSON TN","Store","1170 Vann Dr","","Jackson","TN - Tennessee","38305","731-660-2829","MMkt 243 Memphis","74;717;777;65;610;1372","","11/28/2024","35.6634972","-88.8576919"
"1447","SOUTHAVEN MS","Store","304 Market Plz","","Southaven","MS - Mississippi","38671","662-349-0551","MMkt 243 Memphis","74;717;777;65;610;1372","","11/28/2024","0.0","0.0"
"778","TUPELO MS","Store","3040 N Gloster St","","Tupelo","MS - Mississippi","38804","662-844-0329","MMkt 243 Memphis","718;717;777;65;618;1372","","11/28/2024","34.2973751","-88.7070662"
"1519","MADISON MS","Store","175 Grandview Blvd","Ste 300","Madison","MS - Mississippi","39110","601-607-1503","MM 597 Flowood","2609;717;777;65;2679;1373","","11/28/2024","0.0","0.0"
"938","FLOWOOD MS","Store","194 Promenade Blvd","","Flowood","MS - Mississippi","39232","601-919-0176","MM 597 Flowood","2609;717;777;65;2679;1373","","11/28/2024","32.3438513","-90.0598295"
"1439","MERIDIAN MS","Store","133 S Frontage Rd","Ste 100","Meridian","MS - Mississippi","39301","601-484-5710","MISCELLANEOUS","718;717;777;65;618;1372","10/29/2022","08/08/2024","32.3644649","-88.673469"
"661","HATTIESBURG MS","Store","4600 Hardy St","Ste 23","Hattiesburg","MS - Mississippi","39402","601-296-1922","MM 586 Mobile","718;717;777;65;618;1372","","11/28/2024","31.3218045","-89.359149"
"1174","GULFPORT MS","Store","10545 Hwy 49","","Gulfport","MS - Mississippi","39503","228-539-6463","MM 586 Mobile","2607;717;777;65;68;1372","","11/28/2024","30.450180353908205","-89.10379766770565"
"1781","DIBERVILLE MS","Store","3889 Promenade Pkwy","","Diberville","MS - Mississippi","39540","228-354-9799","MM 586 Mobile","2607;717;777;65;68;1372","","11/28/2024","30.45345365","-88.90069200500048"
"1320","LOUISVILLE SVC CTR","Store","345 International Blvd","STE 300","Brooks","KY - Kentucky","40109","502-955-3800","Kentucky","2356;87;777;65;1372","","08/28/2024","38.05832013477609","-85.70667926499756"
"1321","GEEKSQUAD","Store","345 International Blvd","Ste 300","Brooks","KY - Kentucky","40109","800-433-5778","MISCELLANEOUS","723;87;777;65;623;1372","","08/28/2024","38.05832013477609","-85.70667926499756"
"1587","GEEK SQD CTY REFURB","Store","345 International Blvd","Ste 300","Brooks","KY - Kentucky","40109","999-999-9999","MISCELLANEOUS","723;87;777;65;1320;1372","","08/08/2024","38.05832013477609","-85.70667926499756"
"2417","GEEK SQD CTY SEC MK","Store","345 International Blvd","","Brooks","KY - Kentucky","40109","999-999-9999","MISCELLANEOUS","723;87;777;65;610;1372","","08/08/2024","38.05832013477609","-85.70667926499756"
"2600","GSC REFURB FIN GDS","Store","345 International Blvd","Ste 300","Brooks","KY - Kentucky","40109","999-999-9999","MISCELLANEOUS","723;87;777;65;623;1372","","11/24/2024","38.05832013477609","-85.70667926499756"
"2646","GSC BUSINESS FULFILL","Store","345 International Blvd","Ste 300","Brooks","KY - Kentucky","40109","999-999-9999","MISCELLANEOUS","723;87;777;65;623;1372","","11/24/2024","38.05832013477609","-85.70667926499756"
"2681","GSC Business Sol","Store","345 International Blvd","Ste 300, Dock 78","Brooks","KY - Kentucky","40109","502-955-3800","Kentucky","723;87;777;65;623;1372","","06/25/2024","38.05832013477609","-85.70667926499756"
"1372","RLC SHEPHERDSVILLE","Store","600 PARK LOOP RD","","SHEPHERDSVILLE","KY - Kentucky","40165","999-999-9999","MISCELLANEOUS","723;87;777;65;610","","08/08/2024","0.0","0.0"
"2418","SHEPERDSVILLE SEC MK","Store","600 Park Loop Rd","","Shepherdsville","KY - Kentucky","40165","999-999-9999","MISCELLANEOUS","723;87;777;65;610;1372","","08/08/2024","0.0","0.0"
"2464","SHEP ONLINE RTN STR","Store","600 PARK LOOP RD","Ste D","SHEPHERDSVILLE","KY - Kentucky","40165","502-921-5601","MISCELLANEOUS","2356;84;777;65;2673;1372","","08/08/2024","0.0","0.0"
"2465","SHEP ECOM OPN BX FFL","Store","600 Park Loop Rd","","Shepherdsville","KY - Kentucky","40165","999-999-9999","MISCELLANEOUS","723;87;777;65;2673;1372","","11/24/2024","0.0","0.0"
"2497","LOUISVILLE SEC MK WH","Store","600 PARK LOOP RD","","SHEPHERDSVILLE","KY - Kentucky","40165","999-999-9999","MISCELLANEOUS","723;1376;777;65;610;1372","","08/08/2024","0.0","0.0"
"2671","RLC EAST SM","Store","600 PARK LOOP RD","STE C","SHEPHERDSVILLE","KY - Kentucky","40165","999-999-9999","MISCELLANEOUS","723;87;777;65;610","","08/08/2024","0.0","0.0"
"2672","RLC EAST REF","Store","600 PARK LOOP RD","STE D","SHEPHERDSVILLE","KY - Kentucky","40165","999-999-9999","MISCELLANEOUS","723;87;777;65;610","","08/08/2024","0.0","0.0"
"2673","SHEPHERDSVILLE SVC","Store","600 Park Loop Rd","Ste 311","Shepherdsville","KY - Kentucky","40165","999-999-9999","Kentucky","723;87;777;65;1372","","08/28/2024","0.0","0.0"
"333","ST MATTHEWS KY","Store","5085 Shelbyville Rd","","Louisville","KY - Kentucky","40207","502-259-9577","MM 665 St Matthews","2356;87;777;65;2673;1372","","11/28/2024","38.2522237","-85.62083705021251"
"335","OUTER LOOP KY","Store","4251 Outer Loop","","Louisville","KY - Kentucky","40219","502-962-3933","MM 665 St Matthews","2356;87;777;65;2673;1372","","11/28/2024","38.1399841","-85.6810853"
"1555","JABIL GLOBAL SERVICE","Store","11201 ELECTRON DR","","LOUISVILLE","KY - Kentucky","40299","999-999-9999","Houston South","75;77;777;65;67;1372","","08/08/2024","38.20255315","-85.55241742988528"
"259","LEXINGTON KY","Store","3220 Nicholasville Rd","Ste 170","Lexington","KY - Kentucky","40503","859-272-0024","MM 659 Lexington","2356;87;777;65;2673;1372","","11/28/2024","37.9924075","-84.52088040851564"
"1477","HAMBURG PAVILION KY","Store","1979 Pavilion Wy","","Lexington","KY - Kentucky","40509","859-264-1073","MM 659 Lexington","2356;87;777;65;2673;1372","","11/28/2024","38.0227508","-84.4195137"
"161","FLORENCE KY","Store","100 Meijer Dr","","Florence","KY - Kentucky","41042","859-525-7118","MM 669 Fields Ert","2356;87;777;65;2673;1372","","11/28/2024","39.0137072","-84.6358371860059"
"817","PADUCAH KY","Store","5101 Hinkleville Rd","Ste 810","Paducah","KY - Kentucky","42001","270-443-9747","MM 394 Cape Girard","74;87;777;65;610;1372","","11/28/2024","37.0799318","-88.6890015855524"
"440","BOWLING GREEN KY","Store","1875 Campbell Ln","","Bowling Green","KY - Kentucky","42104","270-780-9855","MM Nashville North","2356;717;777;65;2673;1372","","11/28/2024","36.953496900000005","-86.42771588802617"
"1121","OWENSBORO KY","Store","5101 Frederica St","","Owensboro","KY - Kentucky","42301","270-683-0465","MM 657 Evansville","2356;87;777;65;2673;1372","","11/28/2024","37.718382950000006","-87.12196525382664"
"791","ELIZABETHTOWN KY","Store","2050 N Dixie Hwy","","Elizabethtown","KY - Kentucky","42701","270-735-9157","MM 665 St Matthews","2356;87;777;65;2673;1372","","11/28/2024","0.0","0.0"
"156","TUTTLE CROSSING OH","Store","5800 Britton Pkwy","","Dublin","OH - Ohio","43016","614-793-8630","MM 654 Tuttle Cros","723;87;777;65;623;1372","","11/28/2024","40.07266025","-83.1363817097162"
"6502","COLUMBUS CUSTOM","Store","5800 Britton Pkwy","","Dublin","OH - Ohio","43016","999-999-9999","D81","723;87;777;65;610;1372","","08/08/2024","40.07266025","-83.1363817097162"
"145","HEATH OH","Store","701 Hebron Rd","","Heath","OH - Ohio","43056","740-522-6606","MM 664 Morse Rd","723;87;777;65;623;1372","","11/28/2024","40.034239","-82.4362012"
"292","REYNOLDSBURG OH","Store","2782 Taylor Road Ext","","Reynoldsburg","OH - Ohio","43068","614-863-3442","MM 664 Morse Rd","723;87;777;65;623;1372","","11/28/2024","0.0","0.0"
"1096","GROVE CITY OH","Store","1632 Stringtown Rd","","Grove City","OH - Ohio","43123","614-277-2746","MM 654 Tuttle Cros","723;87;777;65;623;1372","","11/28/2024","39.88059595","-83.03875731955426"
"339","LANCASTER OH","Store","1645 River Valley Cir N","","Lancaster","OH - Ohio","43130","740-654-8314","MM 664 Morse Rd","723;87;777;65;623;1372","","11/28/2024","39.7349746","-82.62863997165402"
"8223","SatRtl Hyatt Columbu","Store","350 N High St","","Columbus","OH - Ohio","43215","999-999-9999","MISCELLANEOUS","723;87;777;65;623;1372","01/20/2024","07/06/2024","39.9696542","-83.0017782"
